Latitude,Longitude,State,panel.area,power,panels,landscape.area,water,urban,Address,demand_10km_MWh,demand_20km_MWh,demand_50km_MWh
47.0204746999998,-120.2232171,WA,0.0001406266846412,,1.0,0.0,0.0,0.0,"2QCG+5P Renslow, WA, USA",4974154.736842105,4974154.736842105,4974154.736842105
44.5821285,-123.2869629,OR,0.0001406266846412,,1.0,0.0,0.0,1.0,"3230 NW Garfield Ave, Corvallis, OR 97330, USA",4974154.736842105,4974154.736842105,4974154.736842105
37.4051763,-122.0847692,CA,0.0001406266846412,,1.0,0.0,0.0,1.0,"1625 San Luis Ave, Mountain View, CA 94043, USA",5801624.736842105,10215782.736842105,10549829.736842105
37.8471729,-122.2715295,CA,0.0001406266846412,,1.0,0.0,0.0,1.0,"3372 Martin Luther King Jr Way, Berkeley, CA 94703, USA",5308201.736842105,6235439.736842105,7062909.736842105
37.1544497,-121.5602301,CA,0.0001406266846412,,1.0,0.0,0.0,0.0,"16600 Finley Ridge Rd, Morgan Hill, CA 95037, USA",4974154.736842105,4974154.736842105,9388312.736842105
38.0069813,-122.086832,CA,0.0001406266846412,,1.0,0.0,0.0,1.0,"150 Nardi Ln, Martinez, CA 94553, USA",4974154.736842105,4974154.736842105,6235439.736842105
38.0898882,-122.1426351,CA,0.0001406266846412,,1.0,0.0,0.0,1.0,"3VQ4+XW Benicia, CA, USA",4974154.736842105,4974154.736842105,6235439.736842105
37.9737295,-122.3638504,CA,0.0001406266846412,,1.0,0.0,0.0,1.0,"2800 Goodrick Ave, Richmond, CA 94801, USA",4974154.736842105,4974154.736842105,6235439.736842105
38.0862958,-122.1396794,CA,0.0001406266846412,,1.0,0.0,0.0,1.0,"4501 California Ct Suite B, Benicia, CA 94510, USA",4974154.736842105,4974154.736842105,6235439.736842105
47.4471837999997,-122.4647015,WA,0.0001406266846412,,1.0,0.0,0.0,0.0,"10203 SW Bank Rd, Vashon, WA 98070, USA",4974154.736842105,4974154.736842105,4974154.736842105
47.4553093999997,-122.4697501,WA,0.0001406266846412,,1.0,0.0,0.0,0.0,"10530 SW Cove Rd, Vashon, WA 98070, USA",4974154.736842105,4974154.736842105,4974154.736842105
38.4300017,-122.7255246,CA,0.0001406266846412,,1.0,0.0,0.0,1.0,"400 Sebastopol Rd, Santa Rosa, CA 95407, USA",4974154.736842105,4974154.736842105,4974154.736842105
38.4591205,-122.7449891,CA,0.0001406266846412,,1.0,0.0,0.0,1.0,"2531 Shawnee St, Santa Rosa, CA 95403, USA",4974154.736842105,4974154.736842105,4974154.736842105
38.436029,-122.7223877,CA,0.0001406266846412,,1.0,0.0,0.0,1.0,"3 W 3rd St, Santa Rosa, CA 95401, USA",4974154.736842105,4974154.736842105,4974154.736842105
38.4888689,-122.7776581,CA,0.0001406266846412,,1.0,0.0,0.0,0.0,"3005 Parnell Rd, Fulton, CA 95439, USA",4974154.736842105,4974154.736842105,4974154.736842105
38.453198,-122.731544,CA,0.0001406266846412,,1.0,0.0,0.0,1.0,"1508 Range Ave, Santa Rosa, CA 95401, USA",4974154.736842105,4974154.736842105,4974154.736842105
38.4239634,-122.7807543,CA,0.0001406266846412,,1.0,0.0,0.0,1.0,"4539 Occidental Rd, Santa Rosa, CA 95401, USA",4974154.736842105,4974154.736842105,4974154.736842105
38.4271074,-122.7856681,CA,0.0001406266846412,,1.0,0.0,0.0,0.0,"672 Irwin Ln, Santa Rosa, CA 95401, USA",4974154.736842105,4974154.736842105,4974154.736842105
37.9414521,-122.007725,CA,0.0001406266846412,,1.0,0.0,0.0,1.0,"3536 Windmill Way, Concord, CA 94518, USA",4974154.736842105,4974154.736842105,6235439.736842105
39.3703737,-123.3024709,CA,0.0001406266846412,,1.0,0.0,0.0,0.0,"9MCX+42 Willits, CA, USA",4974154.736842105,4974154.736842105,4974154.736842105
38.5702314,-110.7132017,,0.0001406266846412,,1.0,0.0,0.0,0.0,85CFH7CP+3P,4974154.736842105,4974154.736842105,4974154.736842105
36.3224345,-94.1255704,AR,0.0001406266846412,,1.0,0.0,0.0,1.0,"1301 S 8th St, Rogers, AR 72756, USA",4974154.736842105,4974154.736842105,4974154.736842105
35.6193239,-115.356879,NV,0.0001406266846412,,1.0,0.0,0.0,0.0,"JJ9V+P6 Primm, NV, USA",4974154.736842105,4974154.736842105,4974154.736842105
38.9128721,-97.2096136,KS,0.0001406266846412,,1.0,0.0,0.0,1.0,"202 S Campbell St, Abilene, KS 67410, USA",4974154.736842105,4974154.736842105,4974154.736842105
39.3830432,-106.0698953,CO,0.0001406266846412,,1.0,0.0,0.0,0.0,"362 Blue Lakes Rd, Breckenridge, CO 80424, USA",4974154.736842105,4974154.736842105,4974154.736842105
38.2388943,-117.3635877,NV,0.0001406266846412,,1.0,0.0,0.0,0.0,"6JQP+HH Tonopah, NV, USA",4974154.736842105,4974154.736842105,4974154.736842105
36.8055319,-117.7729468,,0.0001406266846412,,1.0,0.0,0.0,0.0,8584R64G+6R,4974154.736842105,4974154.736842105,4974154.736842105
44.9740159999999,-93.1482941,MN,0.0001406266846412,,1.0,0.0,0.0,1.0,"1151 Jessamine Ave W, St Paul, MN 55103, USA",4974154.736842105,4974154.736842105,4974154.736842105
44.9816173,-93.1437725,MN,0.0001406266846412,,1.0,0.0,0.0,1.0,"1360 Lexington Pkwy N, St Paul, MN 55117, USA",4974154.736842105,4974154.736842105,4974154.736842105
44.9560982,-93.1057476,MN,0.0001406266846412,,1.0,0.0,0.0,1.0,"127 University Ave W, St Paul, MN 55103, USA",4974154.736842105,4974154.736842105,4974154.736842105
44.95435,-93.0111155,MN,0.0001406266846412,,1.0,0.0,0.0,1.0,"2105 Wilson Ave, St Paul, MN 55119, USA",4974154.736842105,4974154.736842105,4974154.736842105
42.0193113,-97.3988096,NE,0.0001406266846412,,1.0,0.0,0.0,0.0,"1200 S Chestnut St, Norfolk, NE 68701, USA",4974154.736842105,4974154.736842105,4974154.736842105
30.2662689999999,-97.744536,TX,0.0001406266846412,,1.0,0.0,0.0,1.0,"105 W 4th St, Austin, TX 78701, USA",4974154.736842105,4974154.736842105,4974154.736842105
30.1887439999999,-97.740387,TX,0.0001406266846412,,1.0,0.0,0.0,1.0,"5605 Nuckols Crossing Rd, Austin, TX 78744, USA",4974154.736842105,4974154.736842105,4974154.736842105
30.2865529999999,-97.771631,TX,0.0001406266846412,,1.0,0.0,0.0,1.0,"2502 W 12th St, Austin, TX 78703, USA",4974154.736842105,4974154.736842105,4974154.736842105
30.1950639999999,-97.728814,TX,0.0001406266846412,,1.0,0.0,0.0,0.0,"4701 Brook Crest Rd, Austin, TX 78744, USA",4974154.736842105,4974154.736842105,4974154.736842105
30.2150389999999,-97.837513,TX,0.0001406266846412,,1.0,0.0,0.0,1.0,"7008 Greenock St, Austin, TX 78749, USA",4974154.736842105,4974154.736842105,4974154.736842105
31.8585244999999,-108.3200851,NM,0.0001406266846412,,1.0,0.0,0.0,0.0,"VM5H+CX Hachita, NM, USA",4974154.736842105,4974154.736842105,4974154.736842105
40.0179604,-95.9425541,NE,0.0001406266846412,,1.0,0.0,0.0,0.0,"63375 703 Trail, Du Bois, NE 68345, USA",4974154.736842105,4974154.736842105,4974154.736842105
38.9902623,-104.929028,CO,0.0001406266846412,,1.0,0.0,0.0,0.0,"X3RC+49 Air Force Academy, CO, USA",4974154.736842105,4974154.736842105,4974154.736842105
33.8373954999999,-117.3716772,CA,0.0001406266846412,,1.0,0.0,0.0,0.0,"RJPH+X8 Lake Mathews, CA, USA",4974154.736842105,7477742.736842105,10053412.736842105
38.9578842,-106.9885996,,0.0001406266846412,,1.0,0.0,0.0,0.0,"Gothic Townsite, Colorado 81611, USA",4974154.736842105,4974154.736842105,4974154.736842105
35.1856062,-111.7443962,AZ,0.0001406266846412,,1.0,0.0,0.0,0.0,"57P4+66 Flagstaff, AZ, USA",4974154.736842105,4974154.736842105,4974154.736842105
39.0615262,-94.5807929,MO,0.0001406266846412,,1.0,0.0,0.0,1.0,"401 E 36th St, Kansas City, MO 64109, USA",4974154.736842105,4974154.736842105,4974154.736842105
39.0731986,-94.5857523,MO,0.0001406266846412,,1.0,0.0,0.0,1.0,"2940 Main St, Kansas City, MO 64108, USA",4974154.736842105,4974154.736842105,4974154.736842105
39.0690151,-94.5722984,MO,0.0001406266846412,,1.0,0.0,0.0,1.0,"1006 Linwood Blvd, Kansas City, MO 64109, USA",4974154.736842105,4974154.736842105,4974154.736842105
39.0498025,-94.5929009,MO,0.0001406266846412,,1.0,0.0,0.0,1.0,"520 W 43rd St, Kansas City, MO 64111, USA",4974154.736842105,4974154.736842105,4974154.736842105
39.0549155,-94.5966673,MO,0.0001406266846412,,1.0,0.0,0.0,1.0,"819 W 40th St, Kansas City, MO 64111, USA",4974154.736842105,4974154.736842105,4974154.736842105
39.0626293,-94.6058146,MO,0.0001406266846412,,1.0,0.0,0.0,1.0,"3549 Bell St, Kansas City, MO 64111, USA",4974154.736842105,4974154.736842105,4974154.736842105
38.6422374,-90.260501,MO,0.0001406266846412,,1.0,0.0,0.0,1.0,"4616 Lindell Blvd, St. Louis, MO 63108, USA",4974154.736842105,4974154.736842105,4974154.736842105
38.6391849,-90.2555841,MO,0.0001406266846412,,1.0,0.0,0.0,1.0,"4415R Laclede Ave, St. Louis, MO 63108, USA",4974154.736842105,4974154.736842105,4974154.736842105
38.6232737,-90.1918282,MO,0.0001406266846412,,1.0,0.0,0.0,1.0,"5 Clark Ave, St. Louis, MO 63102, USA",4974154.736842105,4974154.736842105,4974154.736842105
38.6487143,-90.195312,MO,0.0001406266846412,,1.0,0.0,0.0,1.0,"1301 N Market St, St. Louis, MO 63106, USA",4974154.736842105,4974154.736842105,4974154.736842105
38.6086684,-90.2295314,MO,0.0001406266846412,,1.0,0.0,0.0,1.0,"2901-2907 Shenandoah Ave, St. Louis, MO 63104, USA",4974154.736842105,4974154.736842105,4974154.736842105
38.6040317,-90.2271194,MO,0.0001406266846412,,1.0,0.0,0.0,1.0,"2753 Lynch St, St. Louis, MO 63118, USA",4974154.736842105,4974154.736842105,4974154.736842105
38.5980551,-90.219047,MO,0.0001406266846412,,1.0,0.0,0.0,1.0,"3015 Salena St, St. Louis, MO 63118, USA",4974154.736842105,4974154.736842105,4974154.736842105
38.5939494,-90.2208825,MO,0.0001406266846412,,1.0,0.0,0.0,1.0,"3319 Wisconsin Ave, St. Louis, MO 63118, USA",4974154.736842105,4974154.736842105,4974154.736842105
38.6133597,-90.2012816,MO,0.0001406266846412,,1.0,0.0,0.0,1.0,"1408 S 10th St, St. Louis, MO 63104, USA",4974154.736842105,4974154.736842105,4974154.736842105
38.660414,-90.1956782,MO,0.0001406266846412,,1.0,0.0,0.0,1.0,"3500 N 9th St, St. Louis, MO 63147, USA",4974154.736842105,4974154.736842105,4974154.736842105
41.1382787999999,-95.9079777,NE,0.0001406266846412,,1.0,0.0,0.0,1.0,"1019 Parkway Dr, Bellevue, NE 68005, USA",4974154.736842105,4974154.736842105,4974154.736842105
35.1179751,-106.5954109,NM,0.0001406266846412,,1.0,0.0,0.0,1.0,"3106 Montclaire Dr NE, Albuquerque, NM 87110, USA",4974154.736842105,4974154.736842105,4974154.736842105
36.2600057,-115.1685177,NV,0.0001406266846412,,1.0,0.0,0.0,1.0,"1849 Arrow Stone Ct, North Las Vegas, NV 89031, USA",4974154.736842105,4974154.736842105,4974154.736842105
35.0671748,-106.6229841,NM,0.0001406266846412,,1.0,0.0,0.0,1.0,"1212 Wilmoore Dr SE, Albuquerque, NM 87106, USA",4974154.736842105,4974154.736842105,4974154.736842105
35.0655477,-106.6341099,NM,0.0001406266846412,,1.0,0.0,0.0,1.0,"1111 University Blvd SE, Albuquerque, NM 87106, USA",4974154.736842105,4974154.736842105,4974154.736842105
35.0729014,-106.6276965,NM,0.0001406266846412,,1.0,0.0,0.0,1.0,"CNM - Ken Chappy Hall, 901 Buena Vista Dr SE, Albuquerque, NM 87106, USA",4974154.736842105,4974154.736842105,4974154.736842105
36.1670073,-115.1486425,NV,0.0001406266846412,,1.0,0.0,0.0,1.0,"495 S Main St, Las Vegas, NV 89101, USA",4974154.736842105,4974154.736842105,4974154.736842105
35.1593098,-106.6063012,NM,0.0001406266846412,,1.0,0.0,0.0,1.0,"1605 Villa Camilla NE, Albuquerque, NM 87113, USA",4974154.736842105,4974154.736842105,4974154.736842105
39.0987531,-94.5432839,MO,0.0001406266846412,,1.0,0.0,0.0,1.0,"3228a E 12th St, Kansas City, MO 64127, USA",4974154.736842105,4974154.736842105,4974154.736842105
35.1276011,-106.5995004,NM,0.0001406266846412,,1.0,0.0,0.0,1.0,"4000 Hilton Ave NE, Albuquerque, NM 87110, USA",4974154.736842105,4974154.736842105,4974154.736842105
39.0277229,-94.5839315,MO,0.0001406266846412,,1.0,0.0,0.0,1.0,"318 E 55th St, Kansas City, MO 64113, USA",4974154.736842105,4974154.736842105,4974154.736842105
35.0574714,-106.5624108,NM,0.0001406266846412,,1.0,0.0,0.0,1.0,"3C4Q+X2 Kirtland Air Force Base, Albuquerque, NM, USA",4974154.736842105,4974154.736842105,4974154.736842105
39.1061009,-94.535919,MO,0.0001406266846412,,1.0,0.0,0.0,1.0,"3838 Independence Ave, Kansas City, MO 64124, USA",4974154.736842105,4974154.736842105,4974154.736842105
38.9885957,-94.5755797,MO,0.0001406266846412,,1.0,0.0,0.0,1.0,"7621 Troost Ave, Kansas City, MO 64131, USA",4974154.736842105,4974154.736842105,4974154.736842105
35.0542707,-106.5395255,NM,0.0001406266846412,,1.0,0.0,0.0,1.0,"3F36+P5 Kirtland Air Force Base, Albuquerque, NM, USA",4974154.736842105,4974154.736842105,4974154.736842105
35.0546837,-106.5445792,NM,0.0001406266846412,,1.0,0.0,0.0,1.0,"3F34+V5 Kirtland Air Force Base, Albuquerque, NM, USA",4974154.736842105,4974154.736842105,4974154.736842105
37.723027,-97.2930445,KS,0.0001406266846412,,1.0,0.0,0.0,1.0,"2220 N Yale Ave, Wichita, KS 67220, USA",4974154.736842105,4974154.736842105,4974154.736842105
35.1051159,-106.5998361,NM,0.0001406266846412,,1.0,0.0,0.0,1.0,"4130 Morningside Dr, Albuquerque, NM 87110, USA",4974154.736842105,4974154.736842105,4974154.736842105
46.9928023999998,-97.1608946,ND,0.0001406266846412,,1.0,0.0,0.0,0.0,"15779 29th St SE, Casselton, ND 58012, USA",4974154.736842105,4974154.736842105,4974154.736842105
30.3845489999999,-97.728505,TX,0.0001406266846412,,1.0,0.0,0.0,1.0,"2926 Read Granberry Trail, Austin, TX 78758, USA",4974154.736842105,4974154.736842105,4974154.736842105
35.0844454,-106.5645021,NM,0.0001406266846412,,1.0,0.0,0.0,1.0,"617 Espanola St NE, Albuquerque, NM 87108, USA",4974154.736842105,4974154.736842105,4974154.736842105
35.0705629,-106.5636995,NM,0.0001406266846412,,1.0,0.0,0.0,1.0,"501 San Pablo St SE, Albuquerque, NM 87108, USA",4974154.736842105,4974154.736842105,4974154.736842105
39.1026965,-94.5659269,MO,0.0001406266846412,,1.0,0.0,0.0,1.0,"1329 E 9th St, Kansas City, MO 64106, USA",4974154.736842105,4974154.736842105,4974154.736842105
30.2765398999999,-97.6321324,TX,0.0001406266846412,,1.0,0.0,0.0,1.0,"9025 Sun Shower Bend, Austin, TX 78724, USA",4974154.736842105,4974154.736842105,4974154.736842105
35.0809318,-106.5527842,NM,0.0001406266846412,,1.0,0.0,0.0,1.0,"425 Virginia St NE, Albuquerque, NM 87108, USA",4974154.736842105,4974154.736842105,4974154.736842105
47.5840037999997,-92.2217119,MN,0.0001406266846412,,1.0,0.0,0.0,0.0,"HQMH+J8 Hoyt Lakes, MN, USA",4974154.736842105,4974154.736842105,4974154.736842105
30.3787930999999,-97.9082208,TX,0.0001406266846412,,1.0,0.0,0.0,1.0,"13608 Country Lake Dr, Austin, TX 78732, USA",4974154.736842105,4974154.736842105,4974154.736842105
30.2837179999999,-97.8227618,TX,0.0001406266846412,,1.0,0.0,0.0,0.0,"1101 S Capital of Texas Hwy, Austin, TX 78746, USA",4974154.736842105,4974154.736842105,4974154.736842105
30.4453508999999,-97.6737195,TX,0.0001406266846412,,1.0,0.0,0.0,1.0,"15021 Purslane Meadow Trail, Austin, TX 78728, USA",4974154.736842105,4974154.736842105,4974154.736842105
30.2146237999999,-97.7978602,TX,0.0001406266846412,,1.0,0.0,0.0,1.0,"5601 Menchaca Rd, Austin, TX 78745, USA",4974154.736842105,4974154.736842105,4974154.736842105
30.3297473999999,-97.8074169,TX,0.0001406266846412,,1.0,0.0,0.0,1.0,"3111 Cavalcade Ct, Austin, TX 78746, USA",4974154.736842105,4974154.736842105,4974154.736842105
30.3994306999999,-97.7668475,TX,0.0001406266846412,,1.0,0.0,0.0,1.0,"9543 Ketona Cove, Austin, TX 78759, USA",4974154.736842105,4974154.736842105,4974154.736842105
30.3998027999999,-97.7755576,TX,0.0001406266846412,,1.0,0.0,0.0,1.0,"9221 Hurley Cove, Austin, TX 78759, USA",4974154.736842105,4974154.736842105,4974154.736842105
30.3661085999999,-97.7635655,TX,0.0001406266846412,,1.0,0.0,0.0,1.0,"7600 Rustling Cove, Austin, TX 78731, USA",4974154.736842105,4974154.736842105,4974154.736842105
30.3466646999999,-97.8634402,TX,0.0001406266846412,,1.0,0.0,0.0,1.0,"2307 Balboa Rd, Austin, TX 78733, USA",4974154.736842105,4974154.736842105,4974154.736842105
30.3496696999999,-97.8008049,TX,0.0001406266846412,,1.0,0.0,0.0,0.0,"5000 Plaza on the Lake # 170, Austin, TX 78746, USA",4974154.736842105,4974154.736842105,4974154.736842105
46.9576980999998,-95.6544481,MN,0.0001406266846412,,1.0,0.0,0.0,0.0,"X85W+36 Rochert, MN, USA",4974154.736842105,4974154.736842105,4974154.736842105
30.2920339999999,-97.6445746,TX,0.0001406266846412,,1.0,0.0,0.0,1.0,"6004 Perlita Dr, Austin, TX 78724, USA",4974154.736842105,4974154.736842105,4974154.736842105
47.8445553999996,-96.0041842,MN,0.0001406266846412,,1.0,0.0,0.0,0.0,"RXVW+R8 Brooks, MN, USA",4974154.736842105,4974154.736842105,4974154.736842105
30.2450658999999,-97.7808791,TX,0.0001406266846412,,1.0,0.0,0.0,1.0,"2708 S Lamar Blvd, Austin, TX 78704, USA",4974154.736842105,4974154.736842105,4974154.736842105
30.3065657999999,-97.6438263,TX,0.0001406266846412,,1.0,0.0,0.0,1.0,"7200 Ellington Cir, Austin, TX 78724, USA",4974154.736842105,4974154.736842105,4974154.736842105
30.2593405999999,-97.720567,TX,0.0001406266846412,,1.0,0.0,0.0,1.0,"2021 E 5th St., Austin, TX 78702, USA",4974154.736842105,4974154.736842105,4974154.736842105
30.4882808999999,-97.7280022,TX,0.0001406266846412,,1.0,0.0,0.0,1.0,"165 Archipelago Trail, Austin, TX 78717, USA",4974154.736842105,4974154.736842105,4974154.736842105
30.3809339999999,-97.8950683,TX,0.0001406266846412,,1.0,0.0,0.0,1.0,"12909 Medina River Way, Austin, TX 78732, USA",4974154.736842105,4974154.736842105,4974154.736842105
30.3914974999999,-97.8962737,TX,0.0001406266846412,,1.0,0.0,0.0,0.0,"13309 Mansfield Dr, Austin, TX 78732, USA",4974154.736842105,4974154.736842105,4974154.736842105
30.3908828999999,-97.6999784,TX,0.0001406266846412,,1.0,0.0,0.0,1.0,"1606 Holstein Dr, Austin, TX 78758, USA",4974154.736842105,4974154.736842105,4974154.736842105
30.3515038999999,-97.6144303,TX,0.0001406266846412,,1.0,0.0,0.0,0.0,"6501 Bramber Ln, Austin, TX 78754, USA",4974154.736842105,4974154.736842105,4974154.736842105
30.3626773999999,-97.7838135,TX,0.0001406266846412,,1.0,0.0,0.0,1.0,"5311 Backtrail Dr, Austin, TX 78731, USA",4974154.736842105,4974154.736842105,4974154.736842105
30.3707968999999,-97.7822156,TX,0.0001406266846412,,1.0,0.0,0.0,1.0,"6801 Valburn Dr, Austin, TX 78731, USA",4974154.736842105,4974154.736842105,4974154.736842105
30.3287818999999,-97.7551916,TX,0.0001406266846412,,1.0,0.0,0.0,1.0,"5006 Westfield Dr, Austin, TX 78731, USA",4974154.736842105,4974154.736842105,4974154.736842105
30.2968950999999,-97.7803883,TX,0.0001406266846412,,1.0,0.0,0.0,1.0,"3602 Bridle Path, Austin, TX 78703, USA",4974154.736842105,4974154.736842105,4974154.736842105
30.2844510999999,-97.6973552,TX,0.0001406266846412,,1.0,0.0,0.0,1.0,"1916 E M. Franklin Ave, Austin, TX 78723, USA",4974154.736842105,4974154.736842105,4974154.736842105
30.2717089999999,-97.7142128,TX,0.0001406266846412,,1.0,0.0,0.0,1.0,"1182 N Pleasant Valley Rd, Austin, TX 78702, USA",4974154.736842105,4974154.736842105,4974154.736842105
30.2739188999999,-97.708371,TX,0.0001406266846412,,1.0,0.0,0.0,1.0,"1183B Hargrave St, Austin, TX 78702, USA",4974154.736842105,4974154.736842105,4974154.736842105
30.2627723999999,-97.7020445,TX,0.0001406266846412,,1.0,0.0,0.0,1.0,"910 Cherico St, Austin, TX 78702, USA",4974154.736842105,4974154.736842105,4974154.736842105
30.4397200999999,-97.6753154,TX,0.0001406266846412,,1.0,0.0,0.0,1.0,"1621 Gaylord Dr, Austin, TX 78728, USA",4974154.736842105,4974154.736842105,4974154.736842105
30.2662234999999,-97.7003378,TX,0.0001406266846412,,1.0,0.0,0.0,1.0,"3309 Thompson St, Austin, TX 78702, USA",4974154.736842105,4974154.736842105,4974154.736842105
30.4875901999999,-97.7898583,TX,0.0001406266846412,,1.0,0.0,0.0,0.0,"11001 Strasburg Ln, Austin, TX 78717, USA",4974154.736842105,4974154.736842105,4974154.736842105
30.1908353999999,-97.783623,TX,0.0001406266846412,,1.0,0.0,0.0,1.0,"7003 Skynook Dr, Austin, TX 78745, USA",4974154.736842105,4974154.736842105,4974154.736842105
30.3053407999999,-97.6910922,TX,0.0001406266846412,,1.0,0.0,0.0,1.0,"2002 Lazy Brk, Austin, TX 78723, USA",4974154.736842105,4974154.736842105,4974154.736842105
30.1780300999999,-97.7571899,TX,0.0001406266846412,,1.0,0.0,0.0,1.0,"4605 Magin Meadow Dr, Austin, TX 78744, USA",4974154.736842105,4974154.736842105,4974154.736842105
34.9297312,-106.6656231,NM,0.0001406266846412,,1.0,0.0,0.0,0.0,"3950 NM-47, Albuquerque, NM 87105, USA",4974154.736842105,4974154.736842105,4974154.736842105
35.7582086,-105.9334457,NM,0.0001406266846412,,1.0,0.0,0.0,0.0,"13 Tesuque Hill Rd, Santa Fe, NM 87506, USA",4974154.736842105,4974154.736842105,4974154.736842105
33.9944764999999,-117.4297158,CA,0.0001406266846412,,1.0,0.0,0.0,1.0,"6305 45th St, Riverside, CA 92509, USA",7180264.736842105,7831485.736842105,10290756.736842105
36.3892637,-105.5807759,NM,0.0001406266846412,,1.0,0.0,0.0,1.0,"116 Cruz Alta Rd, Taos, NM 87571, USA",4974154.736842105,4974154.736842105,4974154.736842105
36.4112321,-105.5748151,NM,0.0001406266846412,,1.0,0.0,0.0,1.0,"400 Cam De La Placita, Taos, NM 87571, USA",4974154.736842105,4974154.736842105,4974154.736842105
36.3770976,-105.5903386,NM,0.0001406266846412,,1.0,0.0,0.0,0.0,"1314 Paseo Del Pueblo Sur, Taos, NM 87571, USA",4974154.736842105,4974154.736842105,4974154.736842105
36.3909032,-105.5755896,NM,0.0001406266846412,,1.0,0.0,0.0,1.0,"134 Cervantes St, Taos, NM 87571, USA",4974154.736842105,4974154.736842105,4974154.736842105
35.6835007,-105.9364587,NM,0.0001406266846412,,1.0,0.0,0.0,1.0,"239 E De Vargas St, Santa Fe, NM 87501, USA",4974154.736842105,4974154.736842105,4974154.736842105
35.7036353,-105.9437523,NM,0.0001406266846412,,1.0,0.0,0.0,1.0,"388 Calle Loma Norte, Santa Fe, NM 87501, USA",4974154.736842105,4974154.736842105,4974154.736842105
35.7071289,-105.9298125,NM,0.0001406266846412,,1.0,0.0,0.0,0.0,"1030 Mansion Ridge Rd, Santa Fe, NM 87501, USA",4974154.736842105,4974154.736842105,4974154.736842105
35.7370242,-105.9072471,NM,0.0001406266846412,,1.0,0.0,0.0,0.0,"3 Eccola Ln, Santa Fe, NM 87506, USA",4974154.736842105,4974154.736842105,4974154.736842105
35.7533421,-105.9317009,NM,0.0001406266846412,,1.0,0.0,0.0,0.0,"25 Meredith Dr, Santa Fe, NM 87506, USA",4974154.736842105,4974154.736842105,4974154.736842105
35.7778004,-105.9204607,NM,0.0001406266846412,,1.0,0.0,0.0,0.0,"4 3 Rock Rd, Santa Fe, NM 87506, USA",4974154.736842105,4974154.736842105,4974154.736842105
35.7766154,-105.91436,NM,0.0001406266846412,,1.0,0.0,0.0,0.0,"4 Cam Sin Ganas, Santa Fe, NM 87506, USA",4974154.736842105,4974154.736842105,4974154.736842105
35.8148912,-105.9192471,NM,0.0001406266846412,,1.0,0.0,0.0,0.0,"65 Vista Redonda, Santa Fe, NM 87506, USA",4974154.736842105,4974154.736842105,4974154.736842105
35.8087898,-105.9108927,NM,0.0001406266846412,,1.0,0.0,0.0,0.0,"3 Heather Ln, Santa Fe, NM 87501, USA",4974154.736842105,4974154.736842105,4974154.736842105
35.8160707,-105.9124911,NM,0.0001406266846412,,1.0,0.0,0.0,0.0,"9C Abs Rd, Santa Fe, NM 87506, USA",4974154.736842105,4974154.736842105,4974154.736842105
35.8289646,-105.9313297,NM,0.0001406266846412,,1.0,0.0,0.0,0.0,"57 Don Filomeno, Santa Fe, NM 87506, USA",4974154.736842105,4974154.736842105,4974154.736842105
35.7034484,-105.9685295,NM,0.0001406266846412,,1.0,0.0,0.0,0.0,"1204 Tortola Trail, Santa Fe, NM 87507, USA",4974154.736842105,4974154.736842105,4974154.736842105
35.6801095,-105.9963656,NM,0.0001406266846412,,1.0,0.0,0.0,0.0,"557 Camino Don Emilio, Santa Fe, NM 87507, USA",4974154.736842105,4974154.736842105,4974154.736842105
35.6876863,-105.9973737,NM,0.0001406266846412,,1.0,0.0,0.0,0.0,"231 Camino Tres Arroyos, Santa Fe, NM 87507, USA",4974154.736842105,4974154.736842105,4974154.736842105
35.6742898,-106.0078637,NM,0.0001406266846412,,1.0,0.0,0.0,0.0,"919 Chicoma Vista, Santa Fe, NM 87507, USA",4974154.736842105,4974154.736842105,4974154.736842105
35.6712509,-106.011799,NM,0.0001406266846412,,1.0,0.0,0.0,0.0,"4359 W Alameda St, Santa Fe, NM 87507, USA",4974154.736842105,4974154.736842105,4974154.736842105
35.6674033,-106.014006,NM,0.0001406266846412,,1.0,0.0,0.0,0.0,"1479B Sierra Azul, Santa Fe, NM 87507, USA",4974154.736842105,4974154.736842105,4974154.736842105
35.7382734,-105.9934095,NM,0.0001406266846412,,1.0,0.0,0.0,0.0,"11 Cam Bonito, Santa Fe, NM 87506, USA",4974154.736842105,4974154.736842105,4974154.736842105
35.7461708,-105.9935262,NM,0.0001406266846412,,1.0,0.0,0.0,0.0,"100 Estrellas De Tano, Santa Fe, NM 87506, USA",4974154.736842105,4974154.736842105,4974154.736842105
35.7407262,-106.0320348,NM,0.0001406266846412,,1.0,0.0,0.0,0.0,"9 Vuelta Chamisa, Santa Fe, NM 87506, USA",4974154.736842105,4974154.736842105,4974154.736842105
35.7202041,-106.0758737,NM,0.0001406266846412,,1.0,0.0,0.0,0.0,"20 Hacienda Rincon, Santa Fe, NM 87506, USA",4974154.736842105,4974154.736842105,4974154.736842105
35.7084941,-106.0623403,NM,0.0001406266846412,,1.0,0.0,0.0,0.0,"85 B Thundercloud Rd, Santa Fe, NM 87506, USA",4974154.736842105,4974154.736842105,4974154.736842105
35.7027236,-106.0556908,NM,0.0001406266846412,,1.0,0.0,0.0,0.0,"11 High Ridge Rd, Santa Fe, NM 87506, USA",4974154.736842105,4974154.736842105,4974154.736842105
35.6745327,-106.0187373,NM,0.0001406266846412,,1.0,0.0,0.0,0.0,"46 Cll Sinsonte, Santa Fe, NM 87507, USA",4974154.736842105,4974154.736842105,4974154.736842105
35.7076659,-106.0083583,NM,0.0001406266846412,,1.0,0.0,0.0,0.0,"34 Blue Jay Dr, Santa Fe, NM 87506, USA",4974154.736842105,4974154.736842105,4974154.736842105
35.7075544,-106.0028626,NM,0.0001406266846412,,1.0,0.0,0.0,0.0,"2 Laurel Cir, Santa Fe, NM 87506, USA",4974154.736842105,4974154.736842105,4974154.736842105
35.7102964,-106.0380884,NM,0.0001406266846412,,1.0,0.0,0.0,0.0,"9 Lupine Ct, Santa Fe, NM 87506, USA",4974154.736842105,4974154.736842105,4974154.736842105
35.7151253,-105.9983035,NM,0.0001406266846412,,1.0,0.0,0.0,0.0,"52 Fin Del Sendero, Santa Fe, NM 87506, USA",4974154.736842105,4974154.736842105,4974154.736842105
35.5296898,-105.9364127,NM,0.0001406266846412,,1.0,0.0,0.0,0.0,"25 Esquila Rd, Santa Fe, NM 87508, USA",4974154.736842105,4974154.736842105,4974154.736842105
35.5278805,-105.9202216,NM,0.0001406266846412,,1.0,0.0,0.0,0.0,"74 Monte Alto Rd, Santa Fe, NM 87508, USA",4974154.736842105,4974154.736842105,4974154.736842105
35.5559359,-105.8879063,NM,0.0001406266846412,,1.0,0.0,0.0,0.0,"69 Alteza, Santa Fe, NM 87508, USA",4974154.736842105,4974154.736842105,4974154.736842105
35.5517102,-105.8955928,NM,0.0001406266846412,,1.0,0.0,0.0,0.0,"90 Ave De Amistad, Santa Fe, NM 87508, USA",4974154.736842105,4974154.736842105,4974154.736842105
35.5439181,-105.9299177,NM,0.0001406266846412,,1.0,0.0,0.0,0.0,"16 Espira Ct, Santa Fe, NM 87508, USA",4974154.736842105,4974154.736842105,4974154.736842105
35.5249264,-105.9323275,NM,0.0001406266846412,,1.0,0.0,0.0,0.0,"34 Monterey Rd, Santa Fe, NM 87508, USA",4974154.736842105,4974154.736842105,4974154.736842105
35.5235713,-105.9484324,NM,0.0001406266846412,,1.0,0.0,0.0,0.0,"11 Bonito Rd, Santa Fe, NM 87508, USA",4974154.736842105,4974154.736842105,4974154.736842105
35.5160122,-105.9005144,NM,0.0001406266846412,,1.0,0.0,0.0,0.0,"32 Blue Mesa Rd, Santa Fe, NM 87508, USA",4974154.736842105,4974154.736842105,4974154.736842105
35.5475794,-105.8892113,NM,0.0001406266846412,,1.0,0.0,0.0,0.0,"31 Camino Costadino, Santa Fe, NM 87508, USA",4974154.736842105,4974154.736842105,4974154.736842105
35.5483543,-105.8963068,NM,0.0001406266846412,,1.0,0.0,0.0,0.0,"6 A Sierra Del Sol, Santa Fe, NM 87508, USA",4974154.736842105,4974154.736842105,4974154.736842105
35.5449246,-105.9361089,NM,0.0001406266846412,,1.0,0.0,0.0,0.0,"4 Enebro Rd, Santa Fe, NM 87508, USA",4974154.736842105,4974154.736842105,4974154.736842105
35.5460319,-105.9442965,NM,0.0001406266846412,,1.0,0.0,0.0,0.0,"2 Avenida De Compadres, Santa Fe, NM 87508, USA",4974154.736842105,4974154.736842105,4974154.736842105
35.5397363,-105.9581288,NM,0.0001406266846412,,1.0,0.0,0.0,0.0,"3 Cerrado Dr, Santa Fe, NM 87508, USA",4974154.736842105,4974154.736842105,4974154.736842105
35.5486533,-105.9695178,NM,0.0001406266846412,,1.0,0.0,0.0,0.0,"64 Camerada Loop, Santa Fe, NM 87508, USA",4974154.736842105,4974154.736842105,4974154.736842105
35.5340017,-105.9493163,NM,0.0001406266846412,,1.0,0.0,0.0,0.0,"14 Balsa Dr, Santa Fe, NM 87508, USA",4974154.736842105,4974154.736842105,4974154.736842105
35.5420367,-105.9077647,NM,0.0001406266846412,,1.0,0.0,0.0,0.0,"28 Moya Loop, Santa Fe, NM 87508, USA",4974154.736842105,4974154.736842105,4974154.736842105
35.7216748,-105.9356967,NM,0.0001406266846412,,1.0,0.0,0.0,0.0,"12 Tano Rd, Santa Fe, NM 87506, USA",4974154.736842105,4974154.736842105,4974154.736842105
35.731144,-105.9517101,NM,0.0001406266846412,,1.0,0.0,0.0,0.0,"3 Cll San Martin, Santa Fe, NM 87506, USA",4974154.736842105,4974154.736842105,4974154.736842105
35.7415236,-105.9159284,NM,0.0001406266846412,,1.0,0.0,0.0,0.0,"1373 Bishops Lodge Rd, Santa Fe, NM 87506, USA",4974154.736842105,4974154.736842105,4974154.736842105
35.7273414,-105.9063891,NM,0.0001406266846412,,1.0,0.0,0.0,0.0,"64 Lodge Trail, Santa Fe, NM 87506, USA",4974154.736842105,4974154.736842105,4974154.736842105
35.7197846,-105.9235185,NM,0.0001406266846412,,1.0,0.0,0.0,0.0,"208 Camino Del Norte, Santa Fe, NM 87501, USA",4974154.736842105,4974154.736842105,4974154.736842105
35.6947382,-105.8985669,NM,0.0001406266846412,,1.0,0.0,0.0,0.0,"1964 Cerros Colorados, Santa Fe, NM 87501, USA",4974154.736842105,4974154.736842105,4974154.736842105
35.6963179,-105.9068677,NM,0.0001406266846412,,1.0,0.0,0.0,0.0,"720 Canada Ancha, Santa Fe, NM 87501, USA",4974154.736842105,4974154.736842105,4974154.736842105
35.6865634,-105.8988528,NM,0.0001406266846412,,1.0,0.0,0.0,0.0,"1672 Cerro Gordo Rd, Santa Fe, NM 87501, USA",4974154.736842105,4974154.736842105,4974154.736842105
35.6517262,-105.8921583,NM,0.0001406266846412,,1.0,0.0,0.0,0.0,"2335 Wilderness Way, Santa Fe, NM 87505, USA",4974154.736842105,4974154.736842105,4974154.736842105
35.6261766,-105.9198651,NM,0.0001406266846412,,1.0,0.0,0.0,0.0,"6 El Gancho Way, Santa Fe, NM 87505, USA",4974154.736842105,4974154.736842105,4974154.736842105
35.6345332,-105.9075472,NM,0.0001406266846412,,1.0,0.0,0.0,0.0,"74 Double Arrow Rd, Santa Fe, NM 87505, USA",4974154.736842105,4974154.736842105,4974154.736842105
35.6298292,-105.903768,NM,0.0001406266846412,,1.0,0.0,0.0,0.0,"88 Ravens Ridge Rd, Santa Fe, NM 87505, USA",4974154.736842105,4974154.736842105,4974154.736842105
35.6336507,-105.9360637,NM,0.0001406266846412,,1.0,0.0,0.0,0.0,"14C Rabbit Rd, Santa Fe, NM 87508, USA",4974154.736842105,4974154.736842105,4974154.736842105
35.6322779,-105.9465332,NM,0.0001406266846412,,1.0,0.0,0.0,0.0,"32 Camino Mariquita, Santa Fe, NM 87508, USA",4974154.736842105,4974154.736842105,4974154.736842105
35.661934,-105.9992719,NM,0.0001406266846412,,1.0,0.0,0.0,1.0,"3000 Agua Fria St, Santa Fe, NM 87507, USA",4974154.736842105,4974154.736842105,4974154.736842105
35.6486308,-105.9020186,NM,0.0001406266846412,,1.0,0.0,0.0,0.0,"J3XX+F5 Santa Fe, NM, USA",4974154.736842105,4974154.736842105,4974154.736842105
35.6463407,-105.9057357,NM,0.0001406266846412,,1.0,0.0,0.0,0.0,"16 B N Cloudstone Dr, Santa Fe, NM 87505, USA",4974154.736842105,4974154.736842105,4974154.736842105
35.6236204,-105.9132679,NM,0.0001406266846412,,1.0,0.0,0.0,0.0,"7355 Old Santa Fe Trail, Santa Fe, NM 87505, USA",4974154.736842105,4974154.736842105,4974154.736842105
35.624579,-105.9064212,NM,0.0001406266846412,,1.0,0.0,0.0,0.0,"9 Golden Ridge Rd, Santa Fe, NM 87505, USA",4974154.736842105,4974154.736842105,4974154.736842105
35.6230223,-105.8945711,NM,0.0001406266846412,,1.0,0.0,0.0,0.0,"14 The Red Rd, Santa Fe, NM 87505, USA",4974154.736842105,4974154.736842105,4974154.736842105
35.6046495,-105.8969084,NM,0.0001406266846412,,1.0,0.0,0.0,0.0,"7518B Old Santa Fe Trail, Santa Fe, NM 87505, USA",4974154.736842105,4974154.736842105,4974154.736842105
35.5523114,-105.8712441,NM,0.0001406266846412,,1.0,0.0,0.0,0.0,"678 Old Las Vegas Hwy, Santa Fe, NM 87505, USA",4974154.736842105,4974154.736842105,4974154.736842105
35.5489458,-105.8624921,NM,0.0001406266846412,,1.0,0.0,0.0,0.0,"28 Apache Creek Rd, Santa Fe, NM 87505, USA",4974154.736842105,4974154.736842105,4974154.736842105
35.5148372,-105.8695589,NM,0.0001406266846412,,1.0,0.0,0.0,0.0,"157A Camino Acote, Santa Fe, NM 87508, USA",4974154.736842105,4974154.736842105,4974154.736842105
35.481768,-105.8873736,NM,0.0001406266846412,,1.0,0.0,0.0,0.0,"16 Lime Kiln Rd, Lamy, NM 87540, USA",4974154.736842105,4974154.736842105,4974154.736842105
35.4853512,-105.9482178,NM,0.0001406266846412,,1.0,0.0,0.0,0.0,"357 New Moon Overlook Rd, Lamy, NM 87540, USA",4974154.736842105,4974154.736842105,4974154.736842105
35.5223339,-105.8347846,NM,0.0001406266846412,,1.0,0.0,0.0,0.0,"188 Ojo De La Vaca Rd, Santa Fe, NM 87508, USA",4974154.736842105,4974154.736842105,4974154.736842105
35.5983495,-106.016021,NM,0.0001406266846412,,1.0,0.0,0.0,0.0,"25 Avenida Vista Esquisita, Santa Fe, NM 87508, USA",4974154.736842105,4974154.736842105,4974154.736842105
35.6054935,-106.0225048,NM,0.0001406266846412,,1.0,0.0,0.0,0.0,"4B Ocaso Dr, Santa Fe, NM 87508, USA",4974154.736842105,4974154.736842105,4974154.736842105
35.8778933,-106.0103939,NM,0.0001406266846412,,1.0,0.0,0.0,0.0,"17919 US 84-285, Santa Fe, NM 87506, USA",4974154.736842105,4974154.736842105,4974154.736842105
35.6538499,-105.9743519,NM,0.0001406266846412,,1.0,0.0,0.0,1.0,"1950 Siringo Rd, Santa Fe, NM 87505, USA",4974154.736842105,4974154.736842105,4974154.736842105
35.6181061,-105.9652855,NM,0.0001406266846412,,1.0,0.0,0.0,0.0,"51 Pso Galisteo, Santa Fe, NM 87508, USA",4974154.736842105,4974154.736842105,4974154.736842105
35.6257663,-105.9695275,NM,0.0001406266846412,,1.0,0.0,0.0,0.0,"3 Old Galisteo Trail, Santa Fe, NM 87508, USA",4974154.736842105,4974154.736842105,4974154.736842105
35.6080251,-105.997019,NM,0.0001406266846412,,1.0,0.0,0.0,0.0,"12A Deans Ct, Santa Fe, NM 87508, USA",4974154.736842105,4974154.736842105,4974154.736842105
35.6177828,-105.9595884,NM,0.0001406266846412,,1.0,0.0,0.0,0.0,"266 Arroyo Hondo Trail, Santa Fe, NM 87508, USA",4974154.736842105,4974154.736842105,4974154.736842105
35.6126667,-105.9504608,NM,0.0001406266846412,,1.0,0.0,0.0,0.0,"132 A Arroyo Hondo Trail, Santa Fe, NM 87508, USA",4974154.736842105,4974154.736842105,4974154.736842105
35.6103963,-105.9440853,NM,0.0001406266846412,,1.0,0.0,0.0,0.0,"37 Fido Ln, Santa Fe, NM 87508, USA",4974154.736842105,4974154.736842105,4974154.736842105
35.6051228,-105.9282498,NM,0.0001406266846412,,1.0,0.0,0.0,0.0,"17 Paseo Vista, Santa Fe, NM 87508, USA",4974154.736842105,4974154.736842105,4974154.736842105
35.5937856,-105.9344473,NM,0.0001406266846412,,1.0,0.0,0.0,0.0,"12 Amigos Ln, Santa Fe, NM 87508, USA",4974154.736842105,4974154.736842105,4974154.736842105
35.5926651,-105.9243875,NM,0.0001406266846412,,1.0,0.0,0.0,0.0,"65 Camino Pacifico, Santa Fe, NM 87508, USA",4974154.736842105,4974154.736842105,4974154.736842105
35.606694,-105.9414065,NM,0.0001406266846412,,1.0,0.0,0.0,0.0,"63 Leaping Powder Rd, Santa Fe, NM 87508, USA",4974154.736842105,4974154.736842105,4974154.736842105
35.6111143,-106.0707762,NM,0.0001406266846412,,1.0,0.0,0.0,0.0,"198 Mutt Nelson Rd, Santa Fe, NM 87507, USA",4974154.736842105,4974154.736842105,4974154.736842105
35.5550977,-106.1217576,NM,0.0001406266846412,,1.0,0.0,0.0,0.0,"22 A Entrada La Cienega, Santa Fe, NM 87507, USA",4974154.736842105,4974154.736842105,4974154.736842105
35.5016933,-106.0630217,NM,0.0001406266846412,,1.0,0.0,0.0,0.0,"3 Turquoise Trail Ct, Santa Fe, NM 87508, USA",4974154.736842105,4974154.736842105,4974154.736842105
35.5025288,-106.0563902,NM,0.0001406266846412,,1.0,0.0,0.0,0.0,"12 Arroyo Trail, Santa Fe, NM 87508, USA",4974154.736842105,4974154.736842105,4974154.736842105
35.4463159,-106.0961489,NM,0.0001406266846412,,1.0,0.0,0.0,0.0,"157 Wolf Rd, Santa Fe, NM 87508, USA",4974154.736842105,4974154.736842105,4974154.736842105
35.3982725,-106.1766751,NM,0.0001406266846412,,1.0,0.0,0.0,0.0,"124 Wild Dog Rd, Los Cerrillos, NM 87010, USA",4974154.736842105,4974154.736842105,4974154.736842105
35.4617282,-106.0398271,NM,0.0001406266846412,,1.0,0.0,0.0,0.0,"20 Vía Del Vaquero, Santa Fe, NM 87508, USA",4974154.736842105,4974154.736842105,4974154.736842105
35.6391316,-105.960264,NM,0.0001406266846412,,1.0,0.0,0.0,1.0,"1224 Rodeo Rd, Santa Fe, NM 87505, USA",4974154.736842105,4974154.736842105,4974154.736842105
35.6507073,-105.9701783,NM,0.0001406266846412,,1.0,0.0,0.0,1.0,"M22H+7W Santa Fe, NM, USA",4974154.736842105,4974154.736842105,4974154.736842105
35.6417361,-105.8787298,NM,0.0001406266846412,,1.0,0.0,0.0,0.0,"98 La Barberia Trail, Santa Fe, NM 87505, USA",4974154.736842105,4974154.736842105,4974154.736842105
35.6383574,-105.9168629,NM,0.0001406266846412,,1.0,0.0,0.0,0.0,"7241 Old Santa Fe Trail, Santa Fe, NM 87505, USA",4974154.736842105,4974154.736842105,4974154.736842105
35.7125351,-105.9120881,NM,0.0001406266846412,,1.0,0.0,0.0,0.0,"1014 Sierra Del Norte, Santa Fe, NM 87501, USA",4974154.736842105,4974154.736842105,4974154.736842105
31.5488683999999,-110.757456,AZ,0.0001406266846412,,1.0,0.0,0.0,0.0,"641 N 3rd Ave, Patagonia, AZ 85624, USA",4974154.736842105,4974154.736842105,4974154.736842105
35.7358993,-105.9140183,NM,0.0001406266846412,,1.0,0.0,0.0,0.0,"6 Senda Vieja, Santa Fe, NM 87506, USA",4974154.736842105,4974154.736842105,4974154.736842105
35.5608876,-106.1182208,NM,0.0001406266846412,,1.0,0.0,0.0,0.0,"98 Rito Guicu, Santa Fe, NM 87507, USA",4974154.736842105,4974154.736842105,4974154.736842105
35.6320346,-106.0748143,NM,0.0001406266846412,,1.0,0.0,0.0,0.0,"1 Colony Dr, Santa Fe, NM 87507, USA",4974154.736842105,4974154.736842105,4974154.736842105
35.7157537,-106.0632116,NM,0.0001406266846412,,1.0,0.0,0.0,0.0,"80 Grey Wolf, Santa Fe, NM 87506, USA",4974154.736842105,4974154.736842105,4974154.736842105
35.7291566,-106.0106591,NM,0.0001406266846412,,1.0,0.0,0.0,0.0,"13 Paseo Del Pajaro, Santa Fe, NM 87506, USA",4974154.736842105,4974154.736842105,4974154.736842105
35.596653,-106.05143,NM,0.0001406266846412,,1.0,0.0,0.0,0.0,"35 Fire Pl, Santa Fe, NM 87508, USA",4974154.736842105,4974154.736842105,4974154.736842105
35.595544,-106.0424641,NM,0.0001406266846412,,1.0,0.0,0.0,0.0,"28 Bisbee Ct, Santa Fe, NM 87508, USA",4974154.736842105,4974154.736842105,4974154.736842105
35.9929749,-106.0796539,NM,0.0001406266846412,,1.0,0.0,0.0,1.0,"123 N Railroad Ave, Española, NM 87532, USA",4974154.736842105,4974154.736842105,4974154.736842105
39.1109281,-108.6525399,CO,0.0001406266846412,,1.0,0.0,0.0,0.0,"486W+9X Grand Junction, CO, USA",4974154.736842105,4974154.736842105,4974154.736842105
35.3792315,-106.4652157,NM,0.0001406266846412,,1.0,0.0,0.0,0.0,"1 Via Luna, Algodones, NM 87004, USA",4974154.736842105,4974154.736842105,4974154.736842105
35.1324658,-106.5669358,NM,0.0001406266846412,,1.0,0.0,0.0,1.0,"4136 Alcazar St NE, Albuquerque, NM 87109, USA",4974154.736842105,4974154.736842105,4974154.736842105
35.1558587,-106.5614822,NM,0.0001406266846412,,1.0,0.0,0.0,1.0,"7420 Woodal St NE, Albuquerque, NM 87109, USA",4974154.736842105,4974154.736842105,4974154.736842105
35.1831867,-106.5214826,NM,0.0001406266846412,,1.0,0.0,0.0,1.0,"10651 Signal Ave NE, Albuquerque, NM 87122, USA",4974154.736842105,4974154.736842105,4974154.736842105
35.1795595,-106.5188465,NM,0.0001406266846412,,1.0,0.0,0.0,0.0,"10900 Corona Ave NE, Albuquerque, NM 87122, USA",4974154.736842105,4974154.736842105,4974154.736842105
35.1895535,-106.5117635,NM,0.0001406266846412,,1.0,0.0,0.0,1.0,"11520 Glendale Ave NE, Albuquerque, NM 87122, USA",4974154.736842105,4974154.736842105,4974154.736842105
35.0739227,-106.5879481,NM,0.0001406266846412,,1.0,0.0,0.0,1.0,"400 Jackson St SE, Albuquerque, NM 87108, USA",4974154.736842105,4974154.736842105,4974154.736842105
35.6678425,-105.8966725,NM,0.0001406266846412,,1.0,0.0,0.0,0.0,"1863 Camino De Cruz Blanca, Santa Fe, NM 87505, USA",4974154.736842105,4974154.736842105,4974154.736842105
30.1849471999999,-97.801503,TX,0.0001406266846412,,1.0,0.0,0.0,1.0,"1007 W Dittmar Rd, Austin, TX 78748, USA",4974154.736842105,4974154.736842105,4974154.736842105
44.9264581,-93.1693763,MN,0.0001406266846412,,1.0,0.0,0.0,1.0,"1636 Randolph Ave, St Paul, MN 55105, USA",4974154.736842105,4974154.736842105,4974154.736842105
35.1874428,-106.4862334,NM,0.0001406266846412,,1.0,0.0,0.0,0.0,"7 Juniper Hill Rd NE, Albuquerque, NM 87122, USA",4974154.736842105,4974154.736842105,4974154.736842105
35.0978925,-106.6437078,NM,0.0001406266846412,,1.0,0.0,0.0,1.0,"1411 Broadway Blvd NE, Albuquerque, NM 87102, USA",4974154.736842105,4974154.736842105,4974154.736842105
35.8272385,-106.3176678,NM,0.0001406266846412,,1.0,0.0,0.0,0.0,"68 Frijoles Mesa Rd, Los Alamos, NM 87544, USA",4974154.736842105,4974154.736842105,4974154.736842105
35.0923092,-106.6407519,NM,0.0001406266846412,,1.0,0.0,0.0,1.0,"99999 Franciscan St NE, Albuquerque, NM 87102, USA",4974154.736842105,4974154.736842105,4974154.736842105
35.0557132,-106.5118936,NM,0.0001406266846412,,1.0,0.0,0.0,1.0,"12059 Zanjero Rd SE, Albuquerque, NM 87123, USA",4974154.736842105,4974154.736842105,4974154.736842105
35.0625554,-106.5135754,NM,0.0001406266846412,,1.0,0.0,0.0,1.0,"749 Fox Ln SE, Albuquerque, NM 87123, USA",4974154.736842105,4974154.736842105,4974154.736842105
35.0624966,-106.5022557,NM,0.0001406266846412,,1.0,0.0,0.0,1.0,"12920 Piru Blvd SE, Albuquerque, NM 87123, USA",4974154.736842105,4974154.736842105,4974154.736842105
34.9907841,-106.3300995,NM,0.0001406266846412,,1.0,0.0,0.0,0.0,"10946 NM-337, Tijeras, NM 87059, USA",4974154.736842105,4974154.736842105,4974154.736842105
45.4090771999999,-86.8277408,WI,0.0001406266846412,,1.0,0.0,0.0,0.0,"Maintenance Shops, Washington, WI 54246, USA",4974154.736842105,4974154.736842105,4974154.736842105
41.7076749,-87.5686312,IL,0.0001406266846412,,1.0,0.0,0.0,1.0,"2255 E 103rd St, Chicago, IL 60617, USA",4974154.736842105,4974154.736842105,4974154.736842105
41.3741369999999,-83.6493833,OH,0.0001406266846412,,1.0,0.0,0.0,1.0,"128 S Prospect St, Bowling Green, OH 43402, USA",4974154.736842105,4974154.736842105,4974154.736842105
41.0540931999999,-83.6659629,OH,0.0001406266846412,,1.0,0.0,0.0,1.0,"1150 Broad Ave, Findlay, OH 45840, USA",4974154.736842105,4974154.736842105,4974154.736842105
41.1466143999999,-81.3431542,OH,0.0001406266846412,,1.0,0.0,0.0,1.0,"1125 Risman Dr, Kent, OH 44243, USA",4974154.736842105,4974154.736842105,4974154.736842105
39.4320442,-77.8039403,WV,0.0001406266846412,,1.0,0.0,0.0,0.0,"209 N King St, Shepherdstown, WV 25443, USA",4974154.736842105,4974154.736842105,4974154.736842105
43.1861318,-76.1188576,NY,0.0001406266846412,,1.0,0.0,0.0,0.0,"8550 Pardee Rd, Cicero, NY 13039, USA",4974154.736842105,4974154.736842105,4974154.736842105
41.3858066999999,-83.6301204,OH,0.0001406266846412,,1.0,0.0,0.0,0.0,"1501 E Poe Rd, Bowling Green, OH 43402, USA",4974154.736842105,4974154.736842105,4974154.736842105
41.3783837999999,-83.642225,OH,0.0001406266846412,,1.0,0.0,0.0,1.0,"705 Ridge St, Bowling Green, OH 43403, USA",4974154.736842105,4974154.736842105,4974154.736842105
35.1706841,-81.3654976,NC,0.0001406266846412,,1.0,0.0,0.0,0.0,"163 Blair Dr, Kings Mountain, NC 28086, USA",4974154.736842105,4974154.736842105,4974154.736842105
40.5700367,-80.0026979,PA,0.0001406266846412,,1.0,0.0,0.0,1.0,"8890 Peebles Rd, Allison Park, PA 15101, USA",4974154.736842105,4974154.736842105,4974154.736842105
40.4437978,-79.958445,PA,0.0001406266846412,,1.0,0.0,0.0,1.0,"3942 O'Hara St, Pittsburgh, PA 15213, USA",4974154.736842105,4974154.736842105,4974154.736842105
44.2812814,-88.4541472,WI,0.0001406266846412,,1.0,0.0,0.0,1.0,"11 Tri-Park Way, Appleton, WI 54914, USA",4974154.736842105,4974154.736842105,4974154.736842105
43.701109,-72.2919752,NH,0.0001406266846412,,1.0,0.0,0.0,1.0,"Panarchy, 9 School St, Hanover, NH 03755, USA",4974154.736842105,4974154.736842105,4974154.736842105
43.7067734,-72.2884257,NH,0.0001406266846412,,1.0,0.0,0.0,1.0,"33 N Main St, Hanover, NH 03755, USA",4974154.736842105,4974154.736842105,4974154.736842105
39.7431796,-89.6547965,IL,0.0001406266846412,,1.0,0.0,0.0,1.0,"100 Hazel Dell Rd, Springfield, IL 62711, USA",4974154.736842105,4974154.736842105,4974154.736842105
44.2447153,-88.476433,WI,0.0001406266846412,,1.0,0.0,0.0,1.0,"2591 S Casaloma Dr, Appleton, WI 54914, USA",4974154.736842105,4974154.736842105,4974154.736842105
35.9588459,-79.1599454,NC,0.0001406266846412,,1.0,0.0,0.0,0.0,"8300 Pickards Meadow Rd, Chapel Hill, NC 27516, USA",4974154.736842105,4974154.736842105,4974154.736842105
36.0706184,-79.1128623,NC,0.0001406266846412,,1.0,0.0,0.0,0.0,"437 Dimmocks Mill Rd #41, Hillsborough, NC 27278, USA",4974154.736842105,4974154.736842105,4974154.736842105
39.2114811,-76.9388601,MD,0.0001406266846412,,1.0,0.0,0.0,1.0,"12264 Clarksville Pike, Clarksville, MD 21029, USA",4974154.736842105,4974154.736842105,4974154.736842105
39.6997838,-86.1500096,IN,0.0001406266846412,,1.0,0.0,0.0,1.0,"MRXX+WX Indianapolis, IN, USA",4974154.736842105,4974154.736842105,4974154.736842105
39.699457,-86.1734847,IN,0.0001406266846412,,1.0,0.0,0.0,1.0,"4404 Bluff Rd, Indianapolis, IN 46217, USA",4974154.736842105,4974154.736842105,4974154.736842105
39.7002315,-86.1568561,IN,0.0001406266846412,,1.0,0.0,0.0,1.0,"64 Gazebo Dr, Indianapolis, IN 46227, USA",4974154.736842105,4974154.736842105,4974154.736842105
39.4406119,-74.6177604,NJ,0.0001406266846412,,1.0,0.0,0.0,1.0,"6001 Delilah Rd, Egg Harbor Township, NJ 08234, USA",4974154.736842105,4974154.736842105,4974154.736842105
35.7910436,-78.7466224,NC,0.0001406266846412,,1.0,0.0,0.0,1.0,"Q7R3+C9 Raleigh, NC, USA",4974154.736842105,4974154.736842105,4974154.736842105
35.7726628,-78.741181,NC,0.0001406266846412,,1.0,0.0,0.0,1.0,"719 Godwin Ct, Raleigh, NC 27606, USA",4974154.736842105,4974154.736842105,4974154.736842105
35.7566827,-78.7183651,NC,0.0001406266846412,,1.0,0.0,0.0,1.0,"5108 Avent Ferry Rd, Raleigh, NC 27606, USA",4974154.736842105,4974154.736842105,4974154.736842105
35.7544473,-78.6833306,NC,0.0001406266846412,,1.0,0.0,0.0,1.0,"US-64, Raleigh, NC 27606, USA",4974154.736842105,4974154.736842105,4974154.736842105
41.3018652999999,-72.2393762,CT,0.0001406266846412,,1.0,0.0,0.0,1.0,"8Q26+P6 East Lyme, CT, USA",4974154.736842105,4974154.736842105,4974154.736842105
41.3004851999999,-72.2433352,CT,0.0001406266846412,,1.0,0.0,0.0,0.0,"8Q24+5M East Lyme, CT, USA",4974154.736842105,4974154.736842105,4974154.736842105
35.7532633,-78.5961074,NC,0.0001406266846412,,1.0,0.0,0.0,1.0,"I-40, Raleigh, NC 27610, USA",4974154.736842105,4974154.736842105,4974154.736842105
35.7133991,-78.5834976,NC,0.0001406266846412,,1.0,0.0,0.0,0.0,"PC78+9J Garner, NC, USA",4974154.736842105,4974154.736842105,4974154.736842105
41.731878,-72.724275,CT,0.0001406266846412,,1.0,0.0,0.0,1.0,"634 New Park Ave, West Hartford, CT 06110, USA",4974154.736842105,4974154.736842105,4974154.736842105
38.8991435,-77.047468,DC,0.0001406266846412,,1.0,0.0,0.0,1.0,"2122 H St NW, Washington, DC 20037, USA",4974154.736842105,4974154.736842105,4974154.736842105
40.157392,-83.195951,OH,0.0001406266846412,,1.0,0.0,0.0,0.0,"5R43+XJ Dublin, OH, USA",4974154.736842105,4974154.736842105,4974154.736842105
40.4247476,-75.9253979,PA,0.0001406266846412,,1.0,0.0,0.0,0.0,"132 Willow Creek Rd, Reading, PA 19605, USA",4974154.736842105,4974154.736842105,4974154.736842105
35.6295823,-78.5667607,NC,0.0001406266846412,,1.0,0.0,0.0,0.0,"310 I-40, Garner, NC 27529, USA",4974154.736842105,4974154.736842105,4974154.736842105
35.6360142,-78.5655941,NC,0.0001406266846412,,1.0,0.0,0.0,0.0,"JCPM+CQ Garner, NC, USA",4974154.736842105,4974154.736842105,4974154.736842105
35.6473394,-78.5655,NC,0.0001406266846412,,1.0,0.0,0.0,0.0,"JCWM+WQ Barrington Hills, NC, USA",4974154.736842105,4974154.736842105,4974154.736842105
35.6656667,-78.5637156,NC,0.0001406266846412,,1.0,0.0,0.0,0.0,"8316 White Oak Rd, Garner, NC 27529, USA",4974154.736842105,4974154.736842105,4974154.736842105
35.6833967,-78.5681148,NC,0.0001406266846412,,1.0,0.0,0.0,0.0,"4200 Waterfield Dr, Garner, NC 27529, USA",4974154.736842105,4974154.736842105,4974154.736842105
35.6949875,-78.5748551,NC,0.0001406266846412,,1.0,0.0,0.0,0.0,"MCVG+X3 Garner, NC, USA",4974154.736842105,4974154.736842105,4974154.736842105
36.1488525,-86.7994102,TN,0.0001406266846412,,1.0,0.0,0.0,1.0,"124 21st Ave S, Nashville, TN 37203, USA",4974154.736842105,4974154.736842105,4974154.736842105
40.9821517999999,-74.111935,NJ,0.0001406266846412,,1.0,0.0,0.0,1.0,"131 N Maple Ave, Ridgewood, NJ 07450, USA",4974154.736842105,4974154.736842105,4974154.736842105
41.8442009,-70.004677,MA,0.0001406266846412,,1.0,0.0,0.0,0.0,"35 Shurtleff Rd, Eastham, MA 02642, USA",4974154.736842105,4974154.736842105,4974154.736842105
43.7152107,-72.2641617,NH,0.0001406266846412,,1.0,0.0,0.0,1.0,"18 Hemlock Rd, Hanover, NH 03755, USA",4974154.736842105,4974154.736842105,4974154.736842105
43.7027214,-72.2840234,NH,0.0001406266846412,,1.0,0.0,0.0,1.0,"16 E Wheelock St, Hanover, NH 03755, USA",4974154.736842105,4974154.736842105,4974154.736842105
38.7703679,-76.1727115,MD,0.0001406266846412,,1.0,0.0,0.0,0.0,"QRCG+4W Arcadia Shores, MD, USA",4974154.736842105,4974154.736842105,4974154.736842105
42.9235225,-74.0473913,NY,0.0001406266846412,,1.0,0.0,0.0,0.0,"3327 Waters Rd, Amsterdam, NY 12010, USA",4974154.736842105,4974154.736842105,4974154.736842105
29.6513251999999,-82.3215967,FL,0.0001406266846412,,1.0,0.0,0.0,1.0,"District Headquarters - Alachua County Library, 401 E University Ave, Gainesville, FL 32601, USA",4974154.736842105,4974154.736842105,4974154.736842105
29.6552719999999,-82.4068955,FL,0.0001406266846412,,1.0,0.0,0.0,1.0,"301 NW 62nd St, Gainesville, FL 32607, USA",4974154.736842105,4974154.736842105,4974154.736842105
28.5336827999998,-80.8151922,FL,0.0001406266846412,,1.0,0.0,0.0,1.0,"1428 Meadow Lark Dr, Titusville, FL 32780, USA",4974154.736842105,4974154.736842105,4974154.736842105
37.7564202566745,-122.198718031487,CA,0.0029531603774658,,21.0,0.0180860153133571,0.0,1.0,"6865 Leona Creek Dr, Oakland, CA 94621, USA",5308201.736842105,6235439.736842105,11477067.736842105
47.7119388333198,-122.368851133314,WA,0.0004218800539236,,3.0,4.14952926374972e-05,0.0,1.0,"950 NW Carkeek Park Rd, Seattle, WA 98177, USA",4974154.736842105,4974154.736842105,4974154.736842105
37.7027656058429,-121.950435688049,CA,0.0074532142859853,,53.0,0.808379351448357,0.0,1.0,"7472 Hansen Dr, Dublin, CA 94568, USA",4974154.736842105,4974154.736842105,11477067.736842105
38.4607367081012,-122.717165162035,CA,0.0011250134771298,,8.0,0.0881168760316372,0.0,1.0,"2145 Mendocino Ave, Santa Rosa, CA 95401, USA",4974154.736842105,4974154.736842105,4974154.736842105
38.4438933747365,-122.716199592312,CA,0.0019687735849772,,14.0,0.634595302835465,0.0,1.0,"542 Mendocino Ave, Santa Rosa, CA 95401, USA",4974154.736842105,4974154.736842105,4974154.736842105
38.4024617956518,-122.821371878727,CA,0.001265640161771,,9.0,0.089740963566184,0.0,1.0,"6826 CA-12, Sebastopol, CA 95472, USA",4974154.736842105,4974154.736842105,4974154.736842105
38.3935497302596,-122.819774088719,CA,0.0004218800539236,,3.0,0.0029071453287601,0.0,1.0,"7084 Fellers Ln, Sebastopol, CA 95472, USA",4974154.736842105,4974154.736842105,4974154.736842105
38.4086396496439,-122.826312849093,CA,0.0002812533692824,,2.0,0.0001455669680833,0.0,1.0,"769 High School Rd, Sebastopol, CA 95472, USA",4974154.736842105,4974154.736842105,4974154.736842105
38.4086017997997,-122.820162549308,CA,0.0002812533692824,,2.0,0.000101247149676,0.0,0.0,"390 Morris St, Sebastopol, CA 95472, USA",4974154.736842105,4974154.736842105,4974154.736842105
38.4450368999583,-122.730913700277,CA,0.0002812533692824,,2.0,0.0002881051162928,0.0,1.0,"1001 Kingwood St, Santa Rosa, CA 95401, USA",4974154.736842105,4974154.736842105,4974154.736842105
38.4262968999674,-122.740957799902,CA,0.0002812533692824,,2.0,4.28587507158518e-05,0.0,1.0,"1925 Sebastopol Rd, Santa Rosa, CA 95407, USA",4974154.736842105,4974154.736842105,4974154.736842105
38.4208862997186,-122.750983569521,CA,0.0014062668464123,,10.0,0.004640203071706,0.0,1.0,"2240 Mercury Way, Santa Rosa, CA 95407, USA",4974154.736842105,4974154.736842105,4974154.736842105
38.4185635499195,-122.740708624786,CA,0.0005625067385649,,4.0,0.0006822707158327,0.0,1.0,"1891 Stony Point Rd, Santa Rosa, CA 95407, USA",4974154.736842105,4974154.736842105,4974154.736842105
38.4027094748299,-122.722290024796,CA,0.0005625067385649,,4.0,0.0014681261834502,0.0,1.0,"251 Bellevue Ave, Santa Rosa, CA 95407, USA",4974154.736842105,4974154.736842105,4974154.736842105
36.6992903894634,-121.600316064715,CA,0.0004218800539236,,3.0,0.0146106406285763,0.0,1.0,"12 Saguaro Cir, Salinas, CA 93905, USA",4974154.736842105,4974154.736842105,4974154.736842105
44.9428388999959,-93.1003787166151,MN,0.0008437601078473,,6.0,0.0001244778556264,0.0,1.0,"150 W Kellogg Blvd, St Paul, MN 55102, USA",4974154.736842105,4974154.736842105,4974154.736842105
33.6535552757157,-116.196133422412,CA,0.0025312803235421,,18.0,0.0670787860804014,0.0,0.0,"84-001 Avenue 54, Thermal, CA 92274, USA",4974154.736842105,4974154.736842105,4974154.736842105
33.6511382893102,-116.143123289581,CA,0.0071719609167028,,51.0,0.0109191545752035,0.0,0.0,"MV24+FQ Coachella, CA, USA",4974154.736842105,4974154.736842105,4974154.736842105
33.6277631499983,-116.240717699974,CA,0.0002812533692824,,2.0,7.82152062430978e-05,0.0,0.0,"81600 Avenue 58, La Quinta, CA 92253, USA",4974154.736842105,4974154.736842105,4974154.736842105
36.1141923665318,-115.144547599852,NV,0.0004218800539236,,3.0,0.0005404027446806,0.0,1.0,"William D. Taylor Hall, Las Vegas, NV 89119, USA",4974154.736842105,4974154.736842105,4974154.736842105
46.578165333333,-90.8768591999969,WI,0.0004218800539236,,3.0,7.68349132589064e-05,0.0,1.0,"1300 Vaughn Ave, Ashland, WI 54806, USA",4974154.736842105,4974154.736842105,4974154.736842105
33.6929259,-116.194270999999,CA,0.0002812533692824,,2.0,6.98898336513666e-05,0.0,1.0,"Buena Vista, 84300 Margarita Ave, Coachella, CA 92236, USA",4974154.736842105,4974154.736842105,4974154.736842105
30.3088894982566,-97.7175969979915,TX,0.0002812533692824,,2.0,0.0005121814968585,0.0,1.0,"810 E 48th St, Austin, TX 78751, USA",4974154.736842105,4974154.736842105,4974154.736842105
30.1990204979516,-97.6968247404329,TX,0.0005625067385649,,4.0,0.0054994662556648,0.0,1.0,"3808 Autumn Bay Dr, Austin, TX 78744, USA",4974154.736842105,4974154.736842105,4974154.736842105
30.2933194052518,-97.7033656891072,TX,0.0234846563350859,,167.0,0.993191783288784,0.0,1.0,"4113 Lawless St, Austin, TX 78723, USA",4974154.736842105,4974154.736842105,4974154.736842105
30.2753333497746,-97.7158108623232,TX,0.0011250134771298,,8.0,0.0196009555271268,0.0,1.0,"2301 E 13th St, Austin, TX 78702, USA",4974154.736842105,4974154.736842105,4974154.736842105
30.2444972499865,-97.7739092499394,TX,0.0005625067385649,,4.0,0.0002544469972252,0.0,1.0,"2403 Kinney Rd, Austin, TX 78704, USA",4974154.736842105,4974154.736842105,4974154.736842105
30.2408520987365,-97.7779818762746,TX,0.0046406805931606,,33.0,0.0226061990411794,0.0,1.0,"2905 Del Curto Rd, Austin, TX 78704, USA",4974154.736842105,4974154.736842105,4974154.736842105
30.2807491289287,-97.629208623185,TX,0.0004218800539236,,3.0,0.0041684579362869,0.0,1.0,"8808 Southwick Dr, Austin, TX 78724, USA",4974154.736842105,4974154.736842105,4974154.736842105
30.2241769999878,-97.6964819999892,TX,0.0004218800539236,,3.0,6.41127757132053e-05,0.0,1.0,"1712 Frontier Valley Dr, Austin, TX 78741, USA",4974154.736842105,4974154.736842105,4974154.736842105
30.2231145289785,-97.8150237963526,TX,0.0022500269542597,,16.0,0.114174289925575,0.0,1.0,"42 Lovegrass Ln, Sunset Valley, TX 78745, USA",4974154.736842105,4974154.736842105,4974154.736842105
30.1768189999972,-97.8513349999752,TX,0.0002812533692824,,2.0,5.96096714511514e-05,0.0,1.0,"10417 Antelope Run, Austin, TX 78748, USA",4974154.736842105,4974154.736842105,4974154.736842105
34.2441022871913,-118.477668742624,CA,0.0014062668464123,,10.0,0.0450695851390362,0.0,1.0,"9525 Haskell Ave, North Hills, CA 91343, USA",4974154.736842105,5953120.736842105,29879628.736842103
33.4263019733978,-111.929845922513,AZ,0.0007031334232061,,5.0,0.0216441283284593,0.0,1.0,"Packard Dr & Lot 59 South, Tempe, AZ 85281, USA",4974154.736842105,4974154.736842105,4974154.736842105
33.633519399826,-111.928893306179,AZ,0.0021094002696184,,15.0,0.0088754051179625,0.0,1.0,"16260 N 71st St, Scottsdale, AZ 85254, USA",4974154.736842105,4974154.736842105,4974154.736842105
37.19881915,-93.281101575,MO,0.0005625067385649,,4.0,4.80330541199282e-05,0.0,1.0,"850 S John Q Hammons Pkwy, Springfield, MO 65897, USA",4974154.736842105,4974154.736842105,4974154.736842105
39.0660391935722,-94.5770924915033,MO,0.0007031334232061,,5.0,0.0314989766772985,0.0,1.0,"3302 Holmes St, Kansas City, MO 64109, USA",4974154.736842105,4974154.736842105,4974154.736842105
39.0576387499994,-94.5799691499383,MO,0.0002812533692824,,2.0,0.0003498349092472,0.0,1.0,"3816 Locust St, Kansas City, MO 64109, USA",4974154.736842105,4974154.736842105,4974154.736842105
39.0568088999641,-94.5863799499639,MO,0.0002812533692824,,2.0,5.92528475224972e-05,0.0,1.0,"3838 Main St, Kansas City, MO 64111, USA",4974154.736842105,4974154.736842105,4974154.736842105
39.068185564436,-94.5658726918646,MO,0.0004218800539236,,3.0,0.0043136875552833,0.0,1.0,"1423 Linwood Blvd, Kansas City, MO 64109, USA",4974154.736842105,4974154.736842105,4974154.736842105
39.0488324111485,-94.6036556676481,MO,0.0007031334232061,,5.0,0.17680617572093,0.0,1.0,"4331 Fairmount Ave, Kansas City, MO 64111, USA",4974154.736842105,4974154.736842105,4974154.736842105
39.0618456471197,-94.5906910537757,MO,0.0007031334232061,,5.0,0.0469469258987904,0.0,1.0,"3600 Broadway Blvd, Kansas City, MO 64111, USA",4974154.736842105,4974154.736842105,4974154.736842105
39.0694827999538,-94.592627449904,MO,0.0002812533692824,,2.0,5.06783003211021e-05,0.0,1.0,"MCC-Penn Valley Learning Resources, W 32 St, Kansas City, MO 64111, USA",4974154.736842105,4974154.736842105,4974154.736842105
39.0659095110687,-94.6034489977282,MO,0.0008437601078473,,6.0,0.0693415741715431,0.0,1.0,"3397 Wyoming St, Kansas City, MO 64111, USA",4974154.736842105,4974154.736842105,4974154.736842105
39.0587064333137,-94.6052538001215,MO,0.0004218800539236,,3.0,0.0030879543020278,0.0,1.0,"3800 Genessee St, Kansas City, MO 64111, USA",4974154.736842105,4974154.736842105,4974154.736842105
39.0713487634169,-94.6048126256278,MO,0.0004218800539236,,3.0,0.0117303725578543,0.0,1.0,"3101 Roanoke Rd, Kansas City, MO 64111, USA",4974154.736842105,4974154.736842105,4974154.736842105
39.0950514371915,-94.6043556758843,MO,0.0009843867924886,,7.0,0.0416047321572304,0.0,1.0,"1531 Genessee St, Kansas City, MO 64102, USA",4974154.736842105,4974154.736842105,4974154.736842105
39.0336308998533,-94.5888250998222,MO,0.0002812533692824,,2.0,0.0001094411485493,0.0,1.0,"5130 Baltimore Ave, Kansas City, MO 64112, USA",4974154.736842105,4974154.736842105,4974154.736842105
38.640541370865,-90.2262065719209,MO,0.0030937870621071,,22.0,0.0557063572790027,0.0,1.0,"3322 Franklin Ave, St. Louis, MO 63106, USA",4974154.736842105,4974154.736842105,4974154.736842105
38.6445706110051,-90.2537161642209,MO,0.0016875202156947,,12.0,0.437125579917908,0.0,1.0,"4400 Pershing Ave, St. Louis, MO 63108, USA",4974154.736842105,4974154.736842105,4974154.736842105
38.6459533499536,-90.2650904999745,MO,0.0002812533692824,,2.0,7.51444172263145e-05,0.0,1.0,"1 Westmoreland Pl, St. Louis, MO 63108, USA",4974154.736842105,4974154.736842105,4974154.736842105
38.6026512284624,-90.2421308258574,MO,0.0004218800539236,,3.0,0.0066167990422248,0.0,1.0,"3100 S Grand Blvd, St. Louis, MO 63118, USA",4974154.736842105,4974154.736842105,4974154.736842105
38.6085615470365,-90.2071102858803,MO,0.0002812533692824,,2.0,0.0006833473688364,0.0,1.0,"2616-2624 N Jefferson Ave, St. Louis, MO 63106, USA",4974154.736842105,4974154.736842105,4974154.736842105
35.0821432477961,-106.642876936761,NM,0.0002812533692824,,2.0,0.0007695773001909,0.0,1.0,"205 Edith Blvd SE, Albuquerque, NM 87102, USA",4974154.736842105,4974154.736842105,4974154.736842105
35.0854994991149,-106.601106465013,NM,0.0779071832912429,,554.0,25.5640063847237,0.0,1.0,"445 Aliso Dr NE, Albuquerque, NM 87108, USA",4974154.736842105,4974154.736842105,4974154.736842105
35.1009777471299,-106.627611990312,NM,0.0002812533692824,,2.0,0.0004231681396961,0.0,1.0,"1638 University Blvd NE, Albuquerque, NM 87102, USA",4974154.736842105,4974154.736842105,4974154.736842105
36.2686225617772,-115.114775710301,NV,0.131485950139553,,935.0,16.4496816625774,0.0,1.0,"5937 Amangani St, North Las Vegas, NV 89081, USA",4974154.736842105,4974154.736842105,4974154.736842105
36.260975081386,-115.19445954525,NV,0.0565319272257755,,402.0,10.7405483367589,0.0,1.0,"4021 Amberdale Ave, North Las Vegas, NV 89031, USA",4974154.736842105,4974154.736842105,4974154.736842105
35.0621636316956,-106.61968115595,NM,0.0004218800539236,,3.0,0.0093178831632584,0.0,1.0,"2321 International Ave, Albuquerque, NM 87106, USA",4974154.736842105,4974154.736842105,4974154.736842105
35.0562753053344,-106.630523957,NM,0.001265640161771,,9.0,0.167149800849557,0.0,1.0,"2608 University Blvd SE, Albuquerque, NM 87106, USA",4974154.736842105,4974154.736842105,4974154.736842105
36.27240347842,-115.212344699422,NV,0.0007031334232061,,5.0,0.0159079501612186,0.0,1.0,"5118 Autumn Meadow Ave, Las Vegas, NV 89130, USA",4974154.736842105,4974154.736842105,4974154.736842105
35.0570674744248,-106.618020025291,NM,0.0005625067385649,,4.0,0.02127653548944,0.0,1.0,"2625 Baylor Dr SE, Albuquerque, NM 87106, USA",4974154.736842105,4974154.736842105,4974154.736842105
34.9873778723773,-106.615469189668,NM,0.0016875202156947,,12.0,0.0835818134871125,0.0,0.0,"5732 Witkin St SE, Albuquerque, NM 87106, USA",4974154.736842105,4974154.736842105,4974154.736842105
35.1717390936573,-106.608529935815,NM,0.0002812533692824,,2.0,0.0006518838226795,0.0,1.0,"1330 Cuesta Abajo Ct NE, Albuquerque, NM 87113, USA",4974154.736842105,4974154.736842105,4974154.736842105
39.0349590936921,-94.5708628207565,MO,0.0004218800539236,,3.0,0.0102651454373598,0.0,1.0,"5025 Tracy Ave, Kansas City, MO 64110, USA",4974154.736842105,4974154.736842105,4974154.736842105
39.1138764333079,-94.514782633289,MO,0.0004218800539236,,3.0,0.0002161028510779,0.0,1.0,"141 N Lawndale Ave, Kansas City, MO 64123, USA",4974154.736842105,4974154.736842105,4974154.736842105
39.018836489441,-94.5739957305243,MO,0.0005625067385649,,4.0,0.0049912843753397,0.0,1.0,"5931 Troost Ave, Kansas City, MO 64110, USA",4974154.736842105,4974154.736842105,4974154.736842105
35.6727502450952,-105.949396182392,NM,0.08100097035335,,576.0,39.4111157027814,0.0,1.0,"500 W Cordova Rd, Santa Fe, NM 87505, USA",4974154.736842105,4974154.736842105,4974154.736842105
35.0560760911436,-106.57353252375,NM,0.0022500269542597,,16.0,0.399136132281065,0.0,1.0,"1312 Hertz Dr SE, Albuquerque, NM 87108, USA",4974154.736842105,4974154.736842105,4974154.736842105
30.2957648297582,-97.8253107645984,TX,0.0046406805931606,,33.0,0.0210921729609668,0.0,1.0,"5656 Bee Cave Rd Suite B-101, West Lake Hills, TX 78746, USA",4974154.736842105,4974154.736842105,4974154.736842105
35.093358695378,-106.65578796838,NM,0.0039375471699545,,28.0,1.2807977643404,0.0,1.0,"921 8th St NW, Albuquerque, NM 87102, USA",4974154.736842105,4974154.736842105,4974154.736842105
35.0861390731042,-106.556103329915,NM,0.0007031334232061,,5.0,0.0695617559652924,0.0,1.0,"8114 Fruit Ave NE, Albuquerque, NM 87108, USA",4974154.736842105,4974154.736842105,4974154.736842105
35.0745457998604,-106.562198899688,NM,0.0002812533692824,,2.0,9.96715541481972e-05,0.0,1.0,"7610 Central Ave SE, Albuquerque, NM 87108, USA",4974154.736842105,4974154.736842105,4974154.736842105
35.0765314590043,-106.536272144872,NM,0.0008437601078473,,6.0,0.150554500415325,0.0,1.0,"301 Conchas St NE, Albuquerque, NM 87123, USA",4974154.736842105,4974154.736842105,4974154.736842105
35.0788947990381,-106.547816398448,NM,0.0002812533692824,,2.0,0.0003030750274658,0.0,1.0,"317 General Arnold St NE, Albuquerque, NM 87123, USA",4974154.736842105,4974154.736842105,4974154.736842105
30.5015637499968,-97.7375731999877,TX,0.0002812533692824,,2.0,2.14299751259387e-05,0.0,1.0,"16635 Cordillera Dr, Round Rock, TX 78681, USA",4974154.736842105,4974154.736842105,4974154.736842105
30.159310799968,-97.7510623499497,TX,0.0002812533692824,,2.0,6.42513124793768e-05,0.0,1.0,"8324 Wesal Dr, Austin, TX 78747, USA",4974154.736842105,4974154.736842105,4974154.736842105
30.2779609995673,-97.8256652989347,TX,0.0002812533692824,,2.0,0.0001864862422347,0.0,1.0,"4913 Barclay Heights Ct, Austin, TX 78746, USA",4974154.736842105,4974154.736842105,4974154.736842105
30.4181506294886,-97.7235423107203,TX,0.0009843867924886,,7.0,0.0783586910140514,0.0,1.0,"4107 Everest Ln, Austin, TX 78727, USA",4974154.736842105,4974154.736842105,4974154.736842105
30.4241256489282,-97.7250482512726,TX,0.0005625067385649,,4.0,0.0220848168671131,0.0,1.0,"12400 Sceptre Cove, Austin, TX 78727, USA",4974154.736842105,4974154.736842105,4974154.736842105
30.346099273072,-97.6901453429186,TX,0.0005625067385649,,4.0,0.0200126696603894,0.0,1.0,"1034 Wisteria Trail, Austin, TX 78753, USA",4974154.736842105,4974154.736842105,4974154.736842105
30.3743744997044,-97.776285849189,TX,0.0002812533692824,,2.0,0.0001507016000151,0.0,1.0,"5309 Valburn Cir, Austin, TX 78731, USA",4974154.736842105,4974154.736842105,4974154.736842105
30.284883890136,-97.6470999716755,TX,0.0015468935310535,,11.0,0.0312384927455746,0.0,1.0,"7304 Ava Ln, Austin, TX 78724, USA",4974154.736842105,4974154.736842105,4974154.736842105
30.3108216661611,-97.7720313987884,TX,0.0004218800539236,,3.0,0.0012291968494653,0.0,1.0,"3706 Meadowbank Dr, Austin, TX 78703, USA",4974154.736842105,4974154.736842105,4974154.736842105
30.3430663999008,-97.9088700997897,TX,0.0002812533692824,,2.0,9.61175014078617e-05,0.0,1.0,"12320 Edenvale Path, Austin, TX 78732, USA",4974154.736842105,4974154.736842105,4974154.736842105
30.2507757258925,-97.7252565298209,TX,0.0009843867924886,,7.0,0.0360391351088881,0.0,1.0,"2011 Riverview St, Austin, TX 78702, USA",4974154.736842105,4974154.736842105,4974154.736842105
30.1538841074762,-97.7389079375249,TX,0.0007031334232061,,5.0,0.0937273549476862,0.0,1.0,"8408 Alum Rock Dr, Austin, TX 78747, USA",4974154.736842105,4974154.736842105,4974154.736842105
30.2547237499202,-97.7222809248733,TX,0.0005625067385649,,4.0,0.0014135205786228,0.0,1.0,"84 Robert T Martinez Jr St, Austin, TX 78702, USA",4974154.736842105,4974154.736842105,4974154.736842105
30.1748754998708,-97.6730194498193,TX,0.0002812533692824,,2.0,0.0001324395627677,0.0,0.0,"9406 Burleson Rd, Austin, TX 78719, USA",4974154.736842105,4974154.736842105,4974154.736842105
30.1815853957774,-97.678538089769,TX,0.0008437601078473,,6.0,0.0097577450616359,0.0,0.0,"58JC+JH Austin, TX, USA",4974154.736842105,4974154.736842105,4974154.736842105
30.2261694147611,-97.8073959107184,TX,0.0011250134771298,,8.0,0.19116937795186,0.0,1.0,"4 Reese Dr, Sunset Valley, TX 78745, USA",4974154.736842105,4974154.736842105,4974154.736842105
30.2142413766609,-97.8081376931489,TX,0.0007031334232061,,5.0,0.0138167342573702,0.0,1.0,"2425 Lightfoot Trail, Austin, TX 78745, USA",4974154.736842105,4974154.736842105,4974154.736842105
30.4894300237637,-97.7232307445134,TX,0.0005625067385649,,4.0,0.0029573783466219,0.0,1.0,"401 Highland Horizon, Austin, TX 78717, USA",4974154.736842105,4974154.736842105,4974154.736842105
30.3565657255018,-97.6204545139986,TX,0.0014062668464123,,10.0,0.119041907709122,0.0,0.0,"5812 Adair Cove, Austin, TX 78754, USA",4974154.736842105,4974154.736842105,4974154.736842105
30.3488582998291,-97.6197910496514,TX,0.0002812533692824,,2.0,0.0001272194514572,0.0,0.0,"11333 Kirkland Hill Path, Austin, TX 78754, USA",4974154.736842105,4974154.736842105,4974154.736842105
30.3946594666365,-97.709508266587,TX,0.0004218800539236,,3.0,0.0001309278307706,0.0,1.0,"11406 Metric Blvd, Austin, TX 78758, USA",4974154.736842105,4974154.736842105,4974154.736842105
30.3901206409647,-97.6926582757829,TX,0.001265640161771,,9.0,0.0722579601876736,0.0,1.0,"11706 Sterlinghill Dr, Austin, TX 78758, USA",4974154.736842105,4974154.736842105,4974154.736842105
30.3859500331685,-97.6982894659995,TX,0.0004218800539236,,3.0,0.0005605206601619,0.0,1.0,"11204 Bending Bough Trail, Austin, TX 78758, USA",4974154.736842105,4974154.736842105,4974154.736842105
30.3765826252624,-97.6984043116762,TX,0.0004218800539236,,3.0,0.03627787713328,0.0,1.0,"1108 Neans Dr, Austin, TX 78758, USA",4974154.736842105,4974154.736842105,4974154.736842105
30.3646809814798,-97.6979008448287,TX,0.0015468935310535,,11.0,0.0033175638658329,0.0,1.0,"9414 N Lamar Blvd, Austin, TX 78753, USA",4974154.736842105,4974154.736842105,4974154.736842105
30.3696839999972,-97.6925727499843,TX,0.0002812533692824,,2.0,3.22868926599622e-05,0.0,1.0,"10009 N Lamar Blvd A, Austin, TX 78753, USA",4974154.736842105,4974154.736842105,4974154.736842105
30.3730776499985,-97.6868435499939,TX,0.0002812533692824,,2.0,1.7000710092485e-05,0.0,1.0,"10600 Turner Dr, Austin, TX 78753, USA",4974154.736842105,4974154.736842105,4974154.736842105
30.3619454991886,-97.7027342971361,TX,0.0004218800539236,,3.0,0.0010636901833191,0.0,1.0,"9010 Quail Creek Dr, Austin, TX 78758, USA",4974154.736842105,4974154.736842105,4974154.736842105
30.4269608924374,-97.6873207790931,TX,0.0042188005392369,,30.0,0.891118602026582,0.0,1.0,"2007 Creole Dr, Austin, TX 78727, USA",4974154.736842105,4974154.736842105,4974154.736842105
30.3252133697786,-97.7682855631936,TX,0.0019687735849772,,14.0,0.359833053534508,0.0,1.0,"4402 Balcones Dr, Austin, TX 78731, USA",4974154.736842105,4974154.736842105,4974154.736842105
30.3024503970407,-97.7833549079238,TX,0.0007031334232061,,5.0,0.0092038872804641,0.0,1.0,"2215 Westlake Dr, Austin, TX 78746, USA",4974154.736842105,4974154.736842105,4974154.736842105
30.2988875613538,-97.7725794921767,TX,0.0004218800539236,,3.0,0.0067619938259124,0.0,1.0,"3403 Windsor Rd, Austin, TX 78703, USA",4974154.736842105,4974154.736842105,4974154.736842105
30.3046882152234,-97.7718843262991,TX,0.0007031334232061,,5.0,0.0525642366425991,0.0,1.0,"Reed Neighborhood Park, 2614 Pecos St, Austin, TX 78703, USA",4974154.736842105,4974154.736842105,4974154.736842105
30.1416815491446,-97.7672394478893,TX,0.0005625067385649,,4.0,0.0191561116931438,0.0,1.0,"10120 Deer Chase Trail, Austin, TX 78747, USA",4974154.736842105,4974154.736842105,4974154.736842105
30.3330243462068,-97.9309265825681,TX,0.0002812533692824,,2.0,0.0007662520830631,0.0,0.0,"13413 Shore Vista Dr, Austin, TX 78732, USA",4974154.736842105,4974154.736842105,4974154.736842105
30.3715360141649,-97.6505340917734,TX,0.0033750404313895,,24.0,0.302291630003452,0.0,1.0,"11300 Friendship Dr, Austin, TX 78754, USA",4974154.736842105,4974154.736842105,4974154.736842105
30.2803030810472,-97.7083050686601,TX,0.0009843867924886,,7.0,0.0792285499395132,0.0,1.0,"1706 Clifford Ave, Austin, TX 78702, USA",4974154.736842105,4974154.736842105,4974154.736842105
30.2697495997205,-97.7239898394269,TX,0.0007031334232061,,5.0,0.0019288688512365,0.0,1.0,"1161 Angelina St, Austin, TX 78702, USA",4974154.736842105,4974154.736842105,4974154.736842105
30.2654027970106,-97.7213961201149,TX,0.0015468935310535,,11.0,0.0513550903523564,0.0,1.0,"900 Chicon St, Austin, TX 78702, USA",4974154.736842105,4974154.736842105,4974154.736842105
30.2678126497647,-97.7112811997092,TX,0.0002812533692824,,2.0,0.0001857754015922,0.0,1.0,"2901 Glen Oaks Dr, Austin, TX 78702, USA",4974154.736842105,4974154.736842105,4974154.736842105
30.2589204496535,-97.7117574995114,TX,0.0005625067385649,,4.0,0.0038612228074073,0.0,1.0,"2701 E 7th St, Austin, TX 78702, USA",4974154.736842105,4974154.736842105,4974154.736842105
30.2633195499821,-97.7144596000126,TX,0.0002812533692824,,2.0,8.81245190501213e-05,0.0,1.0,"2412 Webberville Rd, Austin, TX 78702, USA",4974154.736842105,4974154.736842105,4974154.736842105
30.316588199113,-97.6765394313572,TX,0.0004218800539236,,3.0,0.0039844808853864,0.0,1.0,"6804 Millikin Cove, Austin, TX 78723, USA",4974154.736842105,4974154.736842105,4974154.736842105
30.2703473122608,-97.7031509721982,TX,0.0008437601078473,,6.0,0.0083375755371674,0.0,1.0,"2907 Goodwin Ave, Austin, TX 78702, USA",4974154.736842105,4974154.736842105,4974154.736842105
30.4750982521091,-97.7748437213733,TX,0.0014062668464123,,10.0,0.0925888758386969,0.0,1.0,"13724 1/2 TX-45, Austin, TX 78717, USA",4974154.736842105,4974154.736842105,4974154.736842105
30.4629052179832,-97.7636073146669,TX,0.0007031334232061,,5.0,0.0081010523961782,0.0,1.0,"8532 Inca Dove Drive, Austin, TX 78729, USA",4974154.736842105,4974154.736842105,4974154.736842105
30.4506884331228,-97.6756230007109,TX,0.0004218800539236,,3.0,0.0067347944906353,0.0,1.0,"2206 Fuzz Fairway, Austin, TX 78728, USA",4974154.736842105,4974154.736842105,4974154.736842105
30.4508136998484,-97.7663482495901,TX,0.0002812533692824,,2.0,0.0001087050751745,0.0,1.0,"8304 Coriander Cove, Austin, TX 78729, USA",4974154.736842105,4974154.736842105,4974154.736842105
30.3496251332472,-97.7655056002085,TX,0.0004218800539236,,3.0,0.0008699724735915,0.0,1.0,"3913 Walnut Clay Dr, Austin, TX 78731, USA",4974154.736842105,4974154.736842105,4974154.736842105
30.2180605365145,-97.7703273378469,TX,0.0007031334232061,,5.0,0.031596533516407,0.0,1.0,"4417 Garnett St, Austin, TX 78745, USA",4974154.736842105,4974154.736842105,4974154.736842105
30.2266420498394,-97.7678905494546,TX,0.0002812533692824,,2.0,0.0001178383378982,0.0,1.0,"500 W Ben White Blvd, Austin, TX 78704, USA",4974154.736842105,4974154.736842105,4974154.736842105
35.7191804249491,-105.945682374915,NM,0.0005625067385649,,4.0,0.0016718267647698,0.0,0.0,"2300 N Ridgetop Rd, Santa Fe, NM 87506, USA",4974154.736842105,4974154.736842105,4974154.736842105
35.6969817763065,-105.940324129177,NM,0.0011250134771298,,8.0,0.0707627249219418,0.0,1.0,"220 La Cruz Rd, Santa Fe, NM 87501, USA",4974154.736842105,4974154.736842105,4974154.736842105
35.7042928944874,-105.935951851071,NM,0.0004218800539236,,3.0,0.0215265371003151,0.0,1.0,"398 Calle Colina, Santa Fe, NM 87501, USA",4974154.736842105,4974154.736842105,4974154.736842105
35.6969038260486,-105.929474146244,NM,0.0008437601078473,,6.0,0.0543496989125684,0.0,1.0,"781 Stagecoach Cir, Santa Fe, NM 87501, USA",4974154.736842105,4974154.736842105,4974154.736842105
35.7034581240527,-105.916483463934,NM,0.0043594272238782,,31.0,1.12906222964331,0.0,0.0,"975 Indian Ridge Rd, Santa Fe, NM 87501, USA",4974154.736842105,4974154.736842105,4974154.736842105
35.7007862981851,-105.926041922491,NM,0.0005625067385649,,4.0,0.0122647547249794,0.0,1.0,"852 Hillcrest Dr, Santa Fe, NM 87501, USA",4974154.736842105,4974154.736842105,4974154.736842105
35.7120073241089,-105.920893846024,NM,0.0004218800539236,,3.0,0.0011037108154892,0.0,0.0,"1101 Bishops Lodge Rd, Santa Fe, NM 87501, USA",4974154.736842105,4974154.736842105,4974154.736842105
35.7193508261546,-105.909858697655,NM,0.0014062668464123,,10.0,0.239996548328757,0.0,0.0,"315 Brownell-Howland Rd, Santa Fe, NM 87501, USA",4974154.736842105,4974154.736842105,4974154.736842105
35.7287222315852,-105.922416060949,NM,0.0004218800539236,,3.0,0.0024009213052243,0.0,0.0,"100 Circle Drive Compound, Santa Fe, NM 87501, USA",4974154.736842105,4974154.736842105,4974154.736842105
35.6569171473875,-106.000180544173,NM,0.0005625067385649,,4.0,0.0621981515432596,0.0,1.0,"3221 A Richards Ln, Santa Fe, NM 87507, USA",4974154.736842105,4974154.736842105,4974154.736842105
35.6708427240073,-105.996416905908,NM,0.0004218800539236,,3.0,0.0125185945956707,0.0,0.0,"1331 Nelson Loop, Santa Fe, NM 87507, USA",4974154.736842105,4974154.736842105,4974154.736842105
35.7106962499918,-105.991757749951,NM,0.0002812533692824,,2.0,4.88456979691982e-05,0.0,0.0,"49 E Wildflower Dr, Santa Fe, NM 87506, USA",4974154.736842105,4974154.736842105,4974154.736842105
35.7134005302437,-105.988327751663,NM,0.0004218800539236,,3.0,0.0456994711393118,0.0,0.0,"1311 Cll Del Rey, Santa Fe, NM 87506, USA",4974154.736842105,4974154.736842105,4974154.736842105
35.731015649839,-105.980365550051,NM,0.0002812533692824,,2.0,0.0002125155705213,0.0,0.0,"70 Heartstone Dr, Santa Fe, NM 87506, USA",4974154.736842105,4974154.736842105,4974154.736842105
35.7192298994096,-106.012139548353,NM,0.0002812533692824,,2.0,0.0001833417021632,0.0,0.0,"6 Estates Dr, Santa Fe, NM 87506, USA",4974154.736842105,4974154.736842105,4974154.736842105
35.7342886652578,-105.940215529944,NM,0.0032344137467483,,23.0,1.13521774735546,0.0,0.0,"3289 Monte Sereno Dr, Santa Fe, NM 87506, USA",4974154.736842105,4974154.736842105,4974154.736842105
35.5443179916015,-105.921202524255,NM,0.0004218800539236,,3.0,0.0142350443269014,0.0,0.0,"99 Moya Rd, Santa Fe, NM 87508, USA",4974154.736842105,4974154.736842105,4974154.736842105
35.5267262141411,-105.95744911268,NM,0.0005625067385649,,4.0,0.0802808387276381,0.0,0.0,"3 Tarro Rd, Santa Fe, NM 87508, USA",4974154.736842105,4974154.736842105,4974154.736842105
35.5339527589621,-105.90267661443,NM,0.0004218800539236,,3.0,0.0209836879404783,0.0,0.0,"5 Duende Rd, Santa Fe, NM 87508, USA",4974154.736842105,4974154.736842105,4974154.736842105
35.539471531019,-105.918225598513,NM,0.0004218800539236,,3.0,0.0166159665807486,0.0,0.0,"17 Monte Alto Rd, Santa Fe, NM 87508, USA",4974154.736842105,4974154.736842105,4974154.736842105
35.5506446499064,-105.90565834995,NM,0.0002812533692824,,2.0,0.0001307137390971,0.0,0.0,"2 Conchas Ct, Santa Fe, NM 87508, USA",4974154.736842105,4974154.736842105,4974154.736842105
35.5342785990924,-105.917609448079,NM,0.0002812533692824,,2.0,0.000251371440649,0.0,0.0,"8 Mariano Rd, Santa Fe, NM 87508, USA",4974154.736842105,4974154.736842105,4974154.736842105
35.5251941805366,-105.910260848373,NM,0.0009843867924886,,7.0,0.152845739081264,0.0,0.0,"1 Eldorado Way, Santa Fe, NM 87508, USA",4974154.736842105,4974154.736842105,4974154.736842105
35.5205272983106,-105.957911595489,NM,0.0005625067385649,,4.0,0.0056938367128372,0.0,0.0,"26 Quedo Rd, Santa Fe, NM 87508, USA",4974154.736842105,4974154.736842105,4974154.736842105
35.5395338997326,-105.929861997725,NM,0.0002812533692824,,2.0,0.0004473034241795,0.0,0.0,"5 Gavilan Rd, Santa Fe, NM 87508, USA",4974154.736842105,4974154.736842105,4974154.736842105
35.5379475998954,-105.962972750182,NM,0.0002812533692824,,2.0,0.0002353810305595,0.0,0.0,"4 Casa Del Oro Ln, Santa Fe, NM 87508, USA",4974154.736842105,4974154.736842105,4974154.736842105
35.5463803496807,-105.962942150679,NM,0.0002812533692824,,2.0,0.0004389023105502,0.0,0.0,"19 Camerada Rd, Santa Fe, NM 87508, USA",4974154.736842105,4974154.736842105,4974154.736842105
35.5423899470327,-105.899018639002,NM,0.0002812533692824,,2.0,0.0004594944976568,0.0,0.0,"12 Chusco Rd, Santa Fe, NM 87508, USA",4974154.736842105,4974154.736842105,4974154.736842105
35.7446003574842,-105.926490280538,NM,0.0004218800539236,,3.0,0.0155992840731144,0.0,0.0,"27 Palo Duro, Santa Fe, NM 87506, USA",4974154.736842105,4974154.736842105,4974154.736842105
35.7127116326784,-105.884815410262,NM,0.0025312803235421,,18.0,0.492720715120792,0.0,0.0,"3316 El Paseo, Santa Fe, NM 87501, USA",4974154.736842105,4974154.736842105,4974154.736842105
35.7020047444833,-105.899282726269,NM,0.0007031334232061,,5.0,0.0747656408116817,0.0,0.0,"1861 Cerros Colorados, Santa Fe, NM 87501, USA",4974154.736842105,4974154.736842105,4974154.736842105
35.6585998960705,-105.896798392614,NM,0.0002812533692824,,2.0,0.0005504155519008,0.0,0.0,"2300-2398, 2301-2399 Wilderness Ridge, Santa Fe, NM 87505, USA",4974154.736842105,4974154.736842105,4974154.736842105
35.640109397341,-105.903687496921,NM,0.0002812533692824,,2.0,0.0005640092328786,0.0,0.0,"138 Cloudstone Dr, Santa Fe, NM 87505, USA",4974154.736842105,4974154.736842105,4974154.736842105
35.6341036228723,-105.914743610237,NM,0.0005625067385649,,4.0,0.0404286893547773,0.0,0.0,"19 C, 19 C Double Arrow Rd, Santa Fe, NM 87505, USA",4974154.736842105,4974154.736842105,4974154.736842105
35.6352531600902,-105.925006730728,NM,0.0021094002696184,,15.0,0.060538428474579,0.0,0.0,"3739 Valmora Rd, Santa Fe, NM 87505, USA",4974154.736842105,4974154.736842105,4974154.736842105
35.6642036474872,-105.920614686774,NM,0.0002812533692824,,2.0,0.0006706654843091,0.0,0.0,"3747 Old Santa Fe Trail, Santa Fe, NM 87505, USA",4974154.736842105,4974154.736842105,4974154.736842105
35.6160957488343,-105.896748947148,NM,0.0002812533692824,,2.0,0.0002656324934959,0.0,0.0,"6 Overlook Rd, Santa Fe, NM 87505, USA",4974154.736842105,4974154.736842105,4974154.736842105
35.6125141660909,-105.904638467554,NM,0.0004218800539236,,3.0,0.0084239303402304,0.0,0.0,"75 Cibola Cir, Santa Fe, NM 87505, USA",4974154.736842105,4974154.736842105,4974154.736842105
35.6339628499996,-105.93070035001,NM,0.0002812533692824,,2.0,8.30337986573577e-05,0.0,0.0,"11 Puesta Del Sol, Santa Fe, NM 87508, USA",4974154.736842105,4974154.736842105,4974154.736842105
35.6661736992347,-105.92988969561,NM,0.0002812533692824,,2.0,0.0004231230139732,0.0,1.0,"730 Cam Pinones, Santa Fe, NM 87505, USA",4974154.736842105,4974154.736842105,4974154.736842105
35.6479757495588,-106.025488886686,NM,0.0019687735849772,,14.0,0.310613489094019,0.0,1.0,"1100 Calle Atajo, Santa Fe, NM 87507, USA",4974154.736842105,4974154.736842105,4974154.736842105
35.6441022588424,-106.035005195761,NM,0.005484440701008,,39.0,0.817406322815895,0.0,1.0,"5701 Rufina St, Santa Fe, NM 87507, USA",4974154.736842105,4974154.736842105,4974154.736842105
35.6239432856655,-106.062259984628,NM,0.0067500808627791,,48.0,0.854594857844829,0.0,1.0,"4607 Solecito Loop, Santa Fe, NM 87507, USA",4974154.736842105,4974154.736842105,4974154.736842105
35.6277370083344,-106.045297903655,NM,0.0040781738545957,,29.0,1.23378323971455,0.0,1.0,"4062 Fairly Rd, Santa Fe, NM 87507, USA",4974154.736842105,4974154.736842105,4974154.736842105
35.6348662428447,-106.051784770786,NM,0.0002812533692824,,2.0,0.0007885474052429,0.0,1.0,"3983 San Felipe Rd, Santa Fe, NM 87507, USA",4974154.736842105,4974154.736842105,4974154.736842105
35.6296204150878,-106.00889672516,NM,0.0042188005392369,,30.0,0.850856375157833,0.0,1.0,"4101 Montana Verde Road, Santa Fe, NM 87507, USA",4974154.736842105,4974154.736842105,4974154.736842105
35.6399085202229,-105.984877221271,NM,0.013922041779482,,99.0,6.36540599487781,0.0,1.0,"2816 Calle De Sonoro, Santa Fe, NM 87507, USA",4974154.736842105,4974154.736842105,4974154.736842105
35.6265817380714,-105.986596096109,NM,0.0007031334232061,,5.0,0.0215274092652798,0.0,0.0,"3205 Rinconada Cir, Santa Fe, NM 87507, USA",4974154.736842105,4974154.736842105,4974154.736842105
35.6411157486306,-105.932281141738,NM,0.0002812533692824,,2.0,0.0006100620195865,0.0,1.0,"110 A Sol Y Lomas Dr, Santa Fe, NM 87505, USA",4974154.736842105,4974154.736842105,4974154.736842105
35.6296382977281,-105.913747493807,NM,0.0002812533692824,,2.0,0.0003585494288206,0.0,0.0,"24 Star Vista Rd, Santa Fe, NM 87505, USA",4974154.736842105,4974154.736842105,4974154.736842105
35.6265809499996,-105.92732630005,NM,0.0002812533692824,,2.0,0.0003928137404937,0.0,0.0,"30 Old Agua Fria Rd E, Santa Fe, NM 87508, USA",4974154.736842105,4974154.736842105,4974154.736842105
35.6056625929158,-105.905327304936,NM,0.001265640161771,,9.0,0.0633184995868206,0.0,0.0,"7 Ute Ln, Santa Fe, NM 87505, USA",4974154.736842105,4974154.736842105,4974154.736842105
35.597490399869,-105.900558499221,NM,0.0002812533692824,,2.0,0.000186914976716,0.0,0.0,"52 Calimo Cir, Santa Fe, NM 87505, USA",4974154.736842105,4974154.736842105,4974154.736842105
35.5610887994977,-105.870574898,NM,0.0002812533692824,,2.0,0.0002056872174143,0.0,0.0,"44 Ellis Ranch Rd, Santa Fe, NM 87505, USA",4974154.736842105,4974154.736842105,4974154.736842105
35.5434318978019,-105.863513344902,NM,0.0002812533692824,,2.0,0.0003724901143312,0.0,0.0,"7 Avenida Pita, Santa Fe, NM 87505, USA",4974154.736842105,4974154.736842105,4974154.736842105
35.5476090498215,-105.870608798406,NM,0.0002812533692824,,2.0,0.000391416637212,0.0,0.0,"19 Sands Ln, Santa Fe, NM 87507, USA",4974154.736842105,4974154.736842105,4974154.736842105
35.5200896998403,-105.870997849263,NM,0.0002812533692824,,2.0,0.0001417214486896,0.0,0.0,"130 Principe De Paz, Santa Fe, NM 87508, USA",4974154.736842105,4974154.736842105,4974154.736842105
35.527063496551,-105.835189190127,NM,0.0002812533692824,,2.0,0.0004404062908887,0.0,0.0,"154 Ojo De La Vaca Rd, Glorieta, NM 87535, USA",4974154.736842105,4974154.736842105,4974154.736842105
35.5999240973546,-106.008079853001,NM,0.0011250134771298,,8.0,0.0231987956421375,0.0,0.0,"301 Avenida Del Sur, Santa Fe, NM 87508, USA",4974154.736842105,4974154.736842105,4974154.736842105
35.5931404989407,-106.013440042665,NM,0.0005625067385649,,4.0,0.0276319480362087,0.0,0.0,"6 S Arroyo Ridge Rd, Santa Fe, NM 87508, USA",4974154.736842105,4974154.736842105,4974154.736842105
35.5908299935606,-105.990085620759,NM,0.0005625067385649,,4.0,0.084949099542141,0.0,0.0,"29 Victorio Peak, Santa Fe, NM 87508, USA",4974154.736842105,4974154.736842105,4974154.736842105
35.5875026660933,-105.999243265238,NM,0.0004218800539236,,3.0,0.0106288396000266,0.0,0.0,"7 Mesa Pino, Santa Fe, NM 87508, USA",4974154.736842105,4974154.736842105,4974154.736842105
35.6133020550349,-105.996701924467,NM,0.0029531603774658,,21.0,0.0756778411085589,0.0,0.0,"25 Craftsman Rd, Santa Fe, NM 87508, USA",4974154.736842105,4974154.736842105,4974154.736842105
35.6108722065566,-106.017822675632,NM,0.0009843867924886,,7.0,0.218754427140713,0.0,0.0,"1 La Pradera, Santa Fe, NM 87508, USA",4974154.736842105,4974154.736842105,4974154.736842105
35.6114184951557,-106.039791402205,NM,0.0005625067385649,,4.0,0.0147682017095089,0.0,0.0,"11 Florence Rd, Santa Fe, NM 87507, USA",4974154.736842105,4974154.736842105,4974154.736842105
35.6489002499806,-106.011488149975,NM,0.0002812533692824,,2.0,4.92287778258324e-05,0.0,1.0,"2801 Calle De Saiz, Santa Fe, NM 87507, USA",4974154.736842105,4974154.736842105,4974154.736842105
35.6927558982658,-105.986520828549,NM,0.0004218800539236,,3.0,0.0020727607303857,0.0,0.0,"19 Peacock Alley, Santa Fe, NM 87507, USA",4974154.736842105,4974154.736842105,4974154.736842105
35.7293749326928,-105.95965436025,NM,0.0004218800539236,,3.0,0.0146416985217705,0.0,0.0,"61 Cll San Martin, Santa Fe, NM 87506, USA",4974154.736842105,4974154.736842105,4974154.736842105
35.6460026533205,-105.961295325618,NM,0.0007031334232061,,5.0,0.152961094294667,0.0,1.0,"2207 Brillante St, Santa Fe, NM 87505, USA",4974154.736842105,4974154.736842105,4974154.736842105
35.6545540580608,-105.964893555986,NM,0.0014062668464123,,10.0,0.167475169365287,0.0,1.0,"2073 Cam Lado, Santa Fe, NM 87505, USA",4974154.736842105,4974154.736842105,4974154.736842105
35.6533882499737,-105.990155000069,NM,0.0002812533692824,,2.0,0.0001393312917202,0.0,1.0,"2905 Calle De Oriente, Santa Fe, NM 87507, USA",4974154.736842105,4974154.736842105,4974154.736842105
35.6247650493314,-105.960451498834,NM,0.0005625067385649,,4.0,0.0083478947046399,0.0,0.0,"50 Vereda Serena, Santa Fe, NM 87508, USA",4974154.736842105,4974154.736842105,4974154.736842105
35.612791206181,-105.97143644591,NM,0.0007031334232061,,5.0,0.0506375657639503,0.0,0.0,"3 Senda Artemisia, Santa Fe, NM 87508, USA",4974154.736842105,4974154.736842105,4974154.736842105
35.6189754705003,-105.944356279361,NM,0.0005625067385649,,4.0,0.120143006026268,0.0,0.0,"37 Media Luna, Santa Fe, NM 87508, USA",4974154.736842105,4974154.736842105,4974154.736842105
35.6000681245779,-105.932427775735,NM,0.0005625067385649,,4.0,0.004364732902036,0.0,0.0,"1 Seton Plaza, Santa Fe, NM 87508, USA",4974154.736842105,4974154.736842105,4974154.736842105
35.6448745498101,-106.013998349516,NM,0.0002812533692824,,2.0,0.0001075547125935,0.0,1.0,"3454 Zafarano Dr, Santa Fe, NM 87507, USA",4974154.736842105,4974154.736842105,4974154.736842105
35.7215892730104,-105.884055674013,NM,0.0007031334232061,,5.0,0.0673962759373188,0.0,0.0,"3337 Paseo Segunda, Santa Fe, NM 87501, USA",4974154.736842105,4974154.736842105,4974154.736842105
35.5625321499079,-106.109680949377,NM,0.0002812533692824,,2.0,0.0001899069626927,0.0,0.0,"4 Cll Capulin, Santa Fe, NM 87507, USA",4974154.736842105,4974154.736842105,4974154.736842105
40.2110654984778,-111.636457934999,UT,0.0007031334232061,,5.0,0.0006631267215013,0.0,1.0,"1275 E 1640 S, Provo, UT 84606, USA",4974154.736842105,4974154.736842105,4974154.736842105
35.1366838590488,-106.563557005109,NM,0.001828146900336,,13.0,0.209980407276851,0.0,1.0,"7401 Arroyo Del Oso Ave NE, Albuquerque, NM 87109, USA",4974154.736842105,4974154.736842105,4974154.736842105
35.1526824210734,-106.57169767938,NM,0.0056250673856493,,40.0,1.8338851056962,0.0,1.0,"6508 Dungan St NE, Albuquerque, NM 87109, USA",4974154.736842105,4974154.736842105,4974154.736842105
35.1626944010137,-106.565836179796,NM,0.0014062668464123,,10.0,0.132903720893383,0.0,1.0,"7305 Winans Dr NE, Albuquerque, NM 87109, USA",4974154.736842105,4974154.736842105,4974154.736842105
35.1665519885276,-106.555353049568,NM,0.0052031873317256,,37.0,0.582553696186543,0.0,1.0,"8132 San Francisco Rd NE, Albuquerque, NM 87109, USA",4974154.736842105,4974154.736842105,4974154.736842105
35.1701900919078,-106.537326290007,NM,0.0116720148252223,,83.0,3.59786148848846,0.0,1.0,"Rotary Park, 7725 Quintana Dr NE, Albuquerque, NM 87109, USA",4974154.736842105,4974154.736842105,4974154.736842105
35.1812427704582,-106.510742492007,NM,0.0008437601078473,,6.0,0.125271160544395,0.0,1.0,"11600 Wilshire Ave NE, Albuquerque, NM 87122, USA",4974154.736842105,4974154.736842105,4974154.736842105
35.1909456357267,-106.535126956252,NM,0.0043594272238782,,31.0,1.05485935777044,0.0,1.0,"9500 Florence Ave NE, Albuquerque, NM 87122, USA",4974154.736842105,4974154.736842105,4974154.736842105
35.1919215773612,-106.523043057306,NM,0.0005625067385649,,4.0,0.0599354619886875,0.0,0.0,"10501 Florence Ave NE, Albuquerque, NM 87122, USA",4974154.736842105,4974154.736842105,4974154.736842105
35.1866170190462,-106.541556775094,NM,0.0007031334232061,,5.0,0.0171878979859352,0.0,1.0,"9124 Eagle Rock Ave NE, Albuquerque, NM 87122, USA",4974154.736842105,4974154.736842105,4974154.736842105
35.1932219320485,-106.547891097342,NM,0.0004218800539236,,3.0,0.0150662700797319,0.0,1.0,"8521 San Diego Ct NE, Albuquerque, NM 87122, USA",4974154.736842105,4974154.736842105,4974154.736842105
35.1702284974405,-106.519335576809,NM,0.0007031334232061,,5.0,0.0535824673650265,0.0,1.0,"10811 Ranchitos Rd NE, Albuquerque, NM 87122, USA",4974154.736842105,4974154.736842105,4974154.736842105
35.172122693147,-106.493535175272,NM,0.0009843867924886,,7.0,0.141089030277133,0.0,1.0,"8237 Raintree Dr NE, Albuquerque, NM 87122, USA",4974154.736842105,4974154.736842105,4974154.736842105
35.1749505659275,-106.486937164939,NM,0.0004218800539236,,3.0,0.0003171539028882,0.0,1.0,"406 Live Oak Loop NE, Albuquerque, NM 87122, USA",4974154.736842105,4974154.736842105,4974154.736842105
35.1861697032124,-106.493886742802,NM,0.0011250134771298,,8.0,0.0804204421432,0.0,1.0,"726-26 Tramway Ln NE, Albuquerque, NM 87122, USA",4974154.736842105,4974154.736842105,4974154.736842105
35.1910199498286,-106.504344898108,NM,0.0002812533692824,,2.0,0.0005097955924272,0.0,0.0,"12055 Elena Dr NE, Albuquerque, NM 87122, USA",4974154.736842105,4974154.736842105,4974154.736842105
44.9212783483382,-93.1731767452268,MN,0.0008437601078473,,6.0,0.005465403768599,0.0,1.0,"1722 Scheffer Ave, St Paul, MN 55116, USA",4974154.736842105,4974154.736842105,4974154.736842105
35.0822783078794,-106.656967355776,NM,0.0015468935310535,,11.0,0.163470823454261,0.0,1.0,"323 8th St SW, Albuquerque, NM 87102, USA",4974154.736842105,4974154.736842105,4974154.736842105
35.0861164997173,-106.526158150672,NM,0.0002812533692824,,2.0,0.0004376539844274,0.0,1.0,"11209 Campo Del Oso Ave NE, Albuquerque, NM 87123, USA",4974154.736842105,4974154.736842105,4974154.736842105
35.1197120855111,-106.683442073233,NM,0.0025312803235421,,18.0,0.304555243547797,0.0,1.0,"3201 Don Quixote Dr NW, Albuquerque, NM 87104, USA",4974154.736842105,4974154.736842105,4974154.736842105
30.3307442054482,-97.7447660533775,TX,0.0009843867924886,,7.0,0.0970009204251766,0.0,1.0,"5506 Woodview Ave, Austin, TX 78756, USA",4974154.736842105,4974154.736842105,4974154.736842105
35.2133638499631,-106.590481699891,NM,0.0002812533692824,,2.0,4.87589463889599e-05,0.0,0.0,"11012 Edith Blvd NE, Albuquerque, NM 87113, USA",4974154.736842105,4974154.736842105,4974154.736842105
35.1445619249405,-106.590262599918,NM,0.0005625067385649,,4.0,0.0003546442786455,0.0,1.0,"4700 Osuna Rd NE, Albuquerque, NM 87109, USA",4974154.736842105,4974154.736842105,4974154.736842105
35.1368635995168,-106.601084949414,NM,0.0002812533692824,,2.0,0.0002433431299924,0.0,1.0,"4850 Pan American Fwy, Albuquerque, NM 87109, USA",4974154.736842105,4974154.736842105,4974154.736842105
36.522406969111,-105.559656162496,NM,0.0005625067385649,,4.0,0.048182837900145,0.0,0.0,"35 Geronimo Ln, Arroyo Seco, NM 87514, USA",4974154.736842105,4974154.736842105,4974154.736842105
35.0503327236614,-106.50794712247,NM,0.0016875202156947,,12.0,0.275958443802834,0.0,1.0,"713 Sagebrush Trail SE, Albuquerque, NM 87123, USA",4974154.736842105,4974154.736842105,4974154.736842105
35.0639911999438,-106.497314266693,NM,0.0004218800539236,,3.0,0.0003873671340942,0.0,1.0,"13308 Rachel Rd SE, Albuquerque, NM 87123, USA",4974154.736842105,4974154.736842105,4974154.736842105
38.2424479383615,-117.363012983367,NV,0.0090001078170388,,64.0,6.31625134108095,0.0,0.0,"6JRP+XQ Tonopah, NV, USA",4974154.736842105,4974154.736842105,4974154.736842105
37.6852080988932,-105.888567480974,CO,0.0009843867924886,,7.0,0.0780461116244616,0.0,0.0,"M4P6+3H Mosca, CO, USA",4974154.736842105,4974154.736842105,4974154.736842105
37.6909609999952,-105.8904198335,CO,0.0004218800539236,,3.0,0.0011799864476174,0.0,0.0,"M4R5+9R Mosca, CO, USA",4974154.736842105,4974154.736842105,4974154.736842105
37.6909622333077,-105.882858233257,CO,0.0004218800539236,,3.0,9.27344537377357e-05,0.0,0.0,"8500 Lane 8 N, Mosca, CO 81146, USA",4974154.736842105,4974154.736842105,4974154.736842105
44.475005616603,-73.1501923165627,VT,0.0008437601078473,,6.0,0.0006216753652095,0.0,0.0,"100 Nco Dr, South Burlington, VT 05403, USA",4974154.736842105,4974154.736842105,4974154.736842105
43.7081887666463,-70.2388205666046,ME,0.0004218800539236,,3.0,4.99799247086048e-05,0.0,0.0,"6 Walcott Ave, Falmouth, ME 04105, USA",4974154.736842105,4974154.736842105,4974154.736842105
38.8707483998878,-77.0526079997618,VA,0.0016875202156947,,12.0,0.0015289939334355,0.0,1.0,"VWCW+7X Arlington, VA, USA",4974154.736842105,4974154.736842105,4974154.736842105
39.3497173749206,-77.6032475748641,MD,0.0005625067385649,,4.0,9.87774666771293e-05,0.0,0.0,"1902a Jefferson Pike, Knoxville, MD 21758, USA",4974154.736842105,4974154.736842105,4974154.736842105
39.4636517499913,-76.8953654499752,MD,0.0002812533692824,,2.0,2.551805780828e-05,0.0,0.0,"2817 Benson Rd, Finksburg, MD 21048, USA",4974154.736842105,4974154.736842105,4974154.736842105
43.9805104030805,-73.1286383627043,VT,0.0023906536389009,,17.0,0.0525400113518275,0.0,0.0,"2340 US-7, Middlebury, VT 05753, USA",4974154.736842105,4974154.736842105,4974154.736842105
43.9906155491471,-73.1573908320071,VT,0.0008437601078473,,6.0,0.0139613497404456,0.0,0.0,"117 Star Point Dr, Middlebury, VT 05753, USA",4974154.736842105,4974154.736842105,4974154.736842105
39.7303308640775,-89.6569206736451,IL,0.0005625067385649,,4.0,0.0030368843543529,0.0,0.0,"465 W Southwind Rd, Springfield, IL 62711, USA",4974154.736842105,4974154.736842105,4974154.736842105
40.8126799499938,-77.8607475999913,PA,0.0002812533692824,,2.0,2.0242179274559e-05,0.0,0.0,"R47Q+3P University Park, State College, PA, USA",4974154.736842105,4974154.736842105,4974154.736842105
43.7033353666547,-72.3117028666472,VT,0.0004218800539236,,3.0,5.74093361644882e-05,0.0,0.0,"133 US-5, Norwich, VT 05055, USA",4974154.736842105,4974154.736842105,4974154.736842105
43.7127492666631,-72.2688412999842,NH,0.0004218800539236,,3.0,3.2287201339379e-05,0.0,1.0,"42 Rip Rd, Hanover, NH 03755, USA",4974154.736842105,4974154.736842105,4974154.736842105
44.0184772995282,-73.1729999165876,VT,0.0008437601078473,,6.0,0.0058100720770508,0.0,0.0,"5 Lucius Shaw Ln, Middlebury, VT 05753, USA",4974154.736842105,4974154.736842105,4974154.736842105
43.9860363987282,-73.13061958556,VT,0.0009843867924886,,7.0,0.011113136987865,0.0,0.0,"49 Dairy Rd, Middlebury, VT 05753, USA",4974154.736842105,4974154.736842105,4974154.736842105
41.6512409999495,-71.4627546000554,RI,0.0002812533692824,,2.0,0.00010154790809,0.0,1.0,"100 Cedar Ave, East Greenwich, RI 02818, USA",4974154.736842105,4974154.736842105,4974154.736842105
41.0201979497156,-74.1279951495404,NJ,0.0002812533692824,,2.0,0.0001130905007123,0.0,1.0,"12 Industrial Park, Waldwick, NJ 07463, USA",4974154.736842105,4974154.736842105,4974154.736842105
41.8192505499933,-88.1080238999675,IL,0.0002812533692824,,2.0,3.5422212857753e-05,0.0,1.0,"3S 507 Naperville Rd, Milton Township, IL 60189, USA",4974154.736842105,4974154.736842105,4974154.736842105
41.0987530499899,-72.1069451999844,NY,0.0002812533692824,,2.0,2.37545265778899e-05,0.0,0.0,"3VXV+G6 Springs, NY, USA",4974154.736842105,4974154.736842105,4974154.736842105
43.1513735217199,-89.297885206674,WI,0.001828146900336,,13.0,0.0117720907427073,0.0,0.0,"Eastpark at Biltmore, Madison, WI 53718, USA",4974154.736842105,4974154.736842105,4974154.736842105
36.1380569999987,-86.8162205999975,TN,0.0002812533692824,,2.0,1.18345747217536e-05,0.0,1.0,"3441 Love Cir, Nashville, TN 37212, USA",4974154.736842105,4974154.736842105,4974154.736842105
40.7383708115311,-74.028494509507,NJ,0.0005625067385649,,4.0,0.0028292130887508,0.0,1.0,"85 River St, Hoboken, NJ 07030, USA",4974154.736842105,4974154.736842105,4974154.736842105
42.5047457332379,-70.8951848666039,MA,0.0004218800539236,,3.0,0.0006064664882719,0.0,1.0,"15 Pacific St, Salem, MA 01970, USA",4974154.736842105,4974154.736842105,4974154.736842105
39.5781041499911,-77.3663913499764,MD,0.0002812533692824,,2.0,2.45321347899735e-05,0.0,0.0,"8626 Blacks Mill Rd, Thurmont, MD 21788, USA",4974154.736842105,4974154.736842105,4974154.736842105
40.2224810317763,-74.0818723685179,NJ,0.0035156671160308,,25.0,0.0234492129205912,0.0,0.0,"3540 NJ-66, Neptune Township, NJ 07753, USA",4974154.736842105,4974154.736842105,4974154.736842105
38.5894098249834,-76.0928529999571,MD,0.0005625067385649,,4.0,4.9411975197494e-05,0.0,1.0,"103 Maple Ave, Cambridge, MD 21613, USA",4974154.736842105,4974154.736842105,4974154.736842105
38.7494770499997,-76.2181892000072,MD,0.0002812533692824,,2.0,6.30295115485787e-05,0.0,0.0,"7308 Drum Point Rd, St Michaels, MD 21663, USA",4974154.736842105,4974154.736842105,4974154.736842105
42.8465772571422,-71.2641497714083,NH,0.0019687735849772,,14.0,0.0002133289172761,0.0,1.0,"183 Rockingham Rd, Windham, NH 03087, USA",4974154.736842105,4974154.736842105,4974154.736842105
42.2272047679674,-71.2485500884005,MA,0.0032344137467483,,23.0,0.030448966393739,0.0,0.0,"211 Powisset St, Dover, MA 02030, USA",4974154.736842105,4974154.736842105,4974154.736842105
28.2247687999937,-80.7154292599811,FL,0.0007031334232061,,5.0,0.0001250547637818,0.0,1.0,"8225 N Wickham Rd, Melbourne, FL 32940, USA",4974154.736842105,4974154.736842105,4974154.736842105
39.6511158738935,-121.6482468678,CA,0.0243636519959951,1.76528992617814,20.0,0.281726777667046,0.0,0.0,"Student Health Clinic, Oroville, CA 95965, USA",4974154.736842105,4974154.736842105,4974154.736842105
35.2632776920968,-120.707991112871,CA,0.0004881498101139,,44.0,0.215185756166052,0.0,1.0,"1890 Diablo Dr, San Luis Obispo, CA 93405, USA",4974154.736842105,4974154.736842105,4974154.736842105
38.5570231303086,-121.748822494534,CA,0.0043786254983017,,29.0,0.038416484764792,0.0,1.0,"315 E 14th St, Davis, CA 95616, USA",4974154.736842105,4974154.736842105,16771580.736842105
35.6371161700699,-120.859492966358,CA,0.0003240306621752,,13.0,0.0005543584174886,0.0,0.0,"9349 Adelaida Rd, Paso Robles, CA 93446, USA",4974154.736842105,4974154.736842105,4974154.736842105
35.6511079402254,-120.710920375324,CA,0.0119911940412612,0.971454885708882,1229.0,1.63142233779103,0.0,0.0,"3575 Mustang Springs Rd, Paso Robles, CA 93446, USA",4974154.736842105,4974154.736842105,4974154.736842105
36.2302949499963,-121.766395834649,CA,0.0042481621104776,,7.0,0.0079956407557819,0.0,0.0,"66JM+4C Loma Vista, Big Sur, CA, USA",4974154.736842105,4974154.736842105,4974154.736842105
